Name,Latitude,Longitude,Bikes Available,Slots,Empty Slots,Banking,Ebikes
Benjamin Godard - Victor Hugo,48.865983,2.275725,7,35,27,False,5
André Mazet - Saint-André des Arts,48.853756,2.339096,8,55,47,True,0
Faubourg Du Temple - Republique,48.867872,2.364898,7,38,30,True,4
Beaux-Arts - Bonaparte,48.856452,2.334852,5,20,14,True,0
Toudouze - Clauzel,48.879296,2.33736,0,21,21,True,0
Charonne - Robert et Sonia Delaunay,48.855908,2.392571,4,20,16,False,1
Mairie du 12ème,48.840855,2.387555,22,30,8,False,7
Square Boucicaut,48.851296,2.325062,28,60,31,True,9
Harpe - Saint-Germain,48.851519,2.34367,6,45,38,True,1
Jouffroy d'Abbans - Wagram,48.881973,2.301132,8,40,30,True,5
Guersant - Gouvion-Saint-Cyr,48.882878,2.287667,8,36,27,True,5
Alibert - Jemmapes,48.871044,2.366104,10,60,48,True,3
Caumartin - Provence,48.874423,2.328469,3,22,17,True,3
Cassini - Denfert-Rochereau,48.837526,2.336035,3,25,22,True,1
Saint-Sulpice,48.851654,2.330808,1,21,20,True,1
Raspail - Varenne,48.853148,2.326391,13,18,5,False,3
Lacépède - Monge,48.843893,2.351966,2,23,21,True,1
Saint-Romain - Cherche-Midi,48.847082,2.321375,7,17,6,False,4
André Karman - République,48.910399,2.385136,5,31,24,False,2
Pierre et Marie Curie - Maurice Thorez,48.815802,2.376805,22,27,4,False,5
Bois de Vincennes - Gare,48.836022,2.470834,16,50,33,True,4
Silly - Galliéni,48.835584,2.23255,12,25,12,True,3
Le Brun - Gobelins,48.835093,2.353468,19,48,29,True,7
Gare du Nord - Place de Valenciennes,48.879089,2.354235,2,25,22,True,1
Grande Armée - Brunel,48.876116,2.288124,5,62,57,True,4
Génie - Mozart,48.794902,2.373418,7,19,12,False,5
Thouin - Cardinal Lemoine,48.845047,2.349465,5,17,12,False,1
Froment - Bréguet,48.857041,2.372895,39,43,2,True,12
Notre-Dame-des-Champs - Stanislas,48.844799,2.329338,2,19,17,True,1
Morillons - Dantzig,48.833101,2.29938,7,52,45,False,4
Grenelle - Dr Finlay,48.851315,2.29195,20,71,51,True,7
Chazelles - Courcelles ,48.879407,2.303446,4,35,29,True,1
Croulebarde - Corvisart,48.830982,2.348165,7,34,26,True,3
Ramponeau - Belleville,48.871031,2.379057,4,44,38,True,1
Le Brix et Mesmin - Jourdan,48.822341,2.327862,16,21,5,False,16
Romainville - Vaillant-Couturier,48.86785,2.446748,17,38,20,False,15
Général Martial Valin - Pont du Garigliano,48.838231,2.270506,2,16,14,False,1
Liberté - Vert-de-Maisons,48.790148,2.432863,0,20,20,True,0
Porte de Saint-Ouen - Bessières,48.897922,2.328515,16,42,21,False,3
Bir Hakeim,48.853844,2.289705,21,33,11,True,12
Jules Guesde - Pont du Port à l'Anglais,48.796288,2.417212,20,30,9,True,1
Cambrai - Benjamin Constant,48.895947,2.381134,0,43,42,False,0
De Toqueville - Terrasse,48.882428,2.314002,0,30,30,True,0
Michel-Ange - Parent de Rosan,48.84058,2.258412,13,26,10,False,4
Lagny - Victor Basch,48.848841,2.426325,5,26,21,True,2
Serrurier,48.880493,2.398064,1,18,17,False,1
Théâtre des Amandiers - Palais des sports,48.892649,2.213694,9,23,13,False,1
Louis Lejeune - Barbès,48.818074,2.326701,8,25,17,False,3
Vaugirard - Monsieur le Prince,48.848951,2.341133,6,26,20,True,2
Rond-point du Dr Albert Schweitzer,48.789809,2.314394,2,22,20,False,2
Boétie - Ponthieu,48.871417,2.307679,3,33,29,True,1
Custine - Ramey,48.888736,2.346953,5,41,36,True,4
Pyrénées - Ménilmontant,48.869327,2.395085,1,26,24,False,1
Caire - Dussoubs,48.867853,2.349364,8,40,32,False,0
Tour d'Auvergne - Rodier,48.879161,2.343698,2,17,15,False,1
Assemblée Nationale,48.861411,2.320121,4,63,57,True,4
Dunkerque - Alsace,48.879355,2.358379,3,20,16,False,3
Liard - Amiral Mouchez,48.821417,2.342167,11,14,2,True,9
Gabriel Lamé,48.835121,2.385535,29,36,7,True,0
Las Cases - Bourgogne,48.859091,2.318569,5,22,17,False,1
Félix Ziem - Armand Gauthier,48.889496,2.333394,16,25,8,False,5
Jonquière - Docteur Paul Brousse,48.8948,2.318705,34,40,4,True,15
Square Louis XVI,48.873204,2.323659,20,29,8,True,2
Youri Gagarine - Karl Marx,48.784485,2.359084,10,22,12,False,4
Octave Feuillet - Albéric Magnard,48.861069,2.273028,9,21,11,False,7
Ney - Porte de Clignancourt,48.897887,2.3458,0,25,25,False,0
Gay Lussac - Saint-Jacques,48.84473,2.341924,1,24,23,False,1
Place Jean-Spire-Lemaître,48.846843,2.452062,12,50,38,True,0
Place Georges Guillaumin,48.87475,2.301771,3,29,25,False,0
Bellefond - Poissonnière,48.877599,2.348464,2,17,15,True,0
Jean Oestreicher - Porte de Champerret,48.886556,2.28864,12,21,9,False,8
Alexandre Parodi - Quai de Valmy,48.879359,2.366596,5,24,17,True,2
Ségur - d'Estrées,48.85142,2.309704,14,19,3,False,1
Granges aux Belles,48.876137,2.368084,1,27,26,False,0
Regnault - Patay,48.824358,2.377065,61,63,1,False,6
Gare Saint-Lazare - Place de Budapest,48.877753,2.327339,10,44,34,True,4
Edgar Quinet - Raspail,48.839403,2.329715,4,46,42,True,1
Clignancourt - Ordener,48.891458,2.348636,3,35,29,True,3
Dunkerque - Rocroy,48.880726,2.351464,3,24,21,False,2
Abbeville - Faubourg Poissonnière,48.879223,2.349147,3,14,10,True,0
Boulangers - Cardinal Lemoine,48.84629,2.35215,1,20,19,True,0
Boudreau - Auber,48.87219,2.329423,7,14,5,False,6
Gare de l'Est - Faubourg-Saint-Martin,48.875643,2.359459,5,32,26,True,3
Pereire - Ternes,48.87974,2.288012,4,48,44,True,2
Douai - Bruxelles,48.883208,2.330845,0,27,25,False,0
Champ de Mars - Cler,48.856692,2.306647,26,41,13,True,4
Quai de l'Horloge - Pont Neuf,48.857059,2.341798,9,17,8,True,0
Gare Saint-Lazare - Isly,48.874778,2.326516,10,27,16,True,3
Ambroise Rendu - Porte Brunet,48.883667,2.395733,2,17,15,False,0
Gare de Lyon - Place Louis Armand,48.845515,2.37265,53,60,5,True,10
Institut de France,48.857616,2.335831,2,17,15,True,1
Porte Pouchet-Bessières,48.897876,2.323063,7,23,14,False,3
Vigée-Lebrun - Anselme Payen,48.838684,2.311042,18,24,6,False,12
Institut du Monde Arabe - Saint-Germain,48.849063,2.355809,10,40,29,True,1
Octave Gréard - Tour Eiffel,48.856503,2.293179,18,33,14,True,6
Château - République,48.862924,2.415504,8,26,18,False,6
Chartres - La Charbonnière,48.88476,2.353466,0,34,34,False,0
Lisbonne - Monceau,48.877456,2.309694,4,33,28,True,3
Moncey - Blanche,48.880066,2.331081,1,17,16,False,1
Rochechouart lamartine,48.87672,2.344393,0,24,24,True,0
Jemmapes - Ecluses Saint-Martin,48.877485,2.366007,12,15,3,True,2
Thionville - Ourcq,48.889176,2.383365,4,24,19,True,2
Gare du Nord - Hôpital Lariboisière,48.881949,2.352339,4,49,43,False,1
Legendre - Clichy,48.888962,2.322529,4,40,36,True,3
Quai de la Seine,48.884492,2.370394,1,24,23,True,1
Cité Riverin - Château d'Eau,48.870702,2.35874,1,18,17,True,0
Mutualité,48.848226,2.350287,7,37,26,True,1
Rossini - Laffitte,48.873346,2.337981,1,33,32,False,0
Pyrénées - Emmery,48.87201,2.39204,1,40,39,False,0
Diderot - Reuilly,48.847208,2.386127,18,44,25,True,1
Saint-Ambroise - Parmentier,48.862148,2.377235,2,38,34,True,1
Belidor - Gouvion-Saint-Cyr,48.880222,2.285468,7,39,31,True,4
Place Balard,48.836396,2.278419,5,22,17,True,2
Place de Rhin et Danube,48.881928,2.392587,10,17,7,False,9
Roquette - Thiéré,48.855079,2.373369,21,23,2,True,1
Berri - Haussmann,48.874746,2.308295,7,35,28,False,2
Saint-Maur - Roquette,48.858689,2.383554,24,46,22,True,13
11 Novembre 1918 - 8 Mai 1945,48.808895,2.538242,22,36,14,False,10
Place Du Général De Gaulle,48.868759,2.432993,5,26,21,False,5
Exelmans - Versailles,48.840975,2.26439,40,49,8,True,10
Pereire - Rennequin,48.883648,2.295245,4,23,18,True,3
Port-Royal - Hôpital du Val-de-Grâce,48.837668,2.344814,6,18,11,True,4
Claude Decaen - Cannebière,48.837614,2.397254,21,27,4,False,11
Gare d'Austerlitz,48.842524,2.364044,10,14,4,True,6
Desaix - Edgar Faure,48.852805,2.293077,9,12,3,True,6
Delphine Seyrig - Général Leclerc,48.893924,2.397903,2,53,49,False,2
Panthéon - Valette,48.847021,2.346498,4,39,35,False,3
Square Simon Bolivar,48.87509,2.38263,13,24,10,False,10
Récollets - Square Villemin,48.875035,2.359801,0,17,16,False,0
Amelot - Saint-Sébastien,48.861142,2.3678,22,30,8,False,3
Saint-François-Xavier,48.851545,2.314615,22,42,20,True,5
Place Marcel Cachin,48.814114,2.390908,28,32,4,True,6
Pyramide - Ecole du Breuil ,48.82238,2.458687,4,34,30,False,2
Liège - Moscou,48.879543,2.326463,2,17,15,False,1
Mairie de Montreuil,48.861315,2.440614,7,52,44,True,6
Richard Lenoir - Republique,48.866718,2.369254,4,58,53,True,0
Fabre d'Eglantine - Place de la Nation,48.847112,2.39562,9,68,59,True,5
Cimetière de Montmartre,48.886472,2.33289,4,43,39,True,2
Bagnolet - Orteaux,48.857086,2.398413,17,36,18,True,12
Anatole France - President Roosevelt,48.915516,2.38141,21,29,6,True,10
Henry Farman,48.833724,2.271385,4,16,12,False,2
Jourdain - Place des Grandes Rigoles,48.874031,2.389595,2,22,19,True,2
Rocher - Laborde,48.875902,2.322616,4,65,60,True,1
Fontenay - Libération,48.847803,2.445142,19,25,6,False,6
Grands Moulins de Pantin,48.897384,2.395999,22,50,28,False,16
Gambetta - Saint Fargeau,48.871245,2.403906,6,24,17,False,6
Cimetière de Fontenay-sous-Bois,48.847062,2.478782,2,15,13,False,2
Gabriel Péri - Francisco Ferrer,48.886337,2.407339,11,18,5,False,8
Place de la Reine Astrid,48.864921,2.302549,12,54,40,True,1
Lucie Aubrac - Fort,48.818145,2.271185,2,30,28,True,2
Pajol - Place Herbert,48.892782,2.36356,28,39,11,True,17
Fédération - Suffren,48.852828,2.297878,5,25,19,True,1
Hôpital Européen Georges Pompidou ,48.837695,2.275374,24,64,36,False,3
Concorde - Stalingrad,48.798584,2.38213,22,35,11,True,8
Carducci - Place Hannah Arendt,48.877437,2.386074,4,27,23,False,3
Saint-Jacques - Val de Grâce,48.841751,2.341389,13,19,6,False,11
Manin - Carrières d'Amérique,48.884672,2.39197,4,20,16,False,1
Victor Hugo - Jeanne Jugan,48.843949,2.415081,6,28,20,False,4
Porte de Vanves,48.828013,2.305688,9,32,23,False,3
Place de la République - Voltaire,48.866831,2.365481,10,19,9,True,2
Conservatoire de Musique,48.770936,2.403401,25,25,0,False,5
Gare de l'Est - Fidélité,48.874575,2.356796,4,15,9,False,2
Championnet - Vauvenargues,48.894019,2.331987,13,33,19,True,6
Buisson Saint-Louis - Saint-Maur,48.871747,2.372253,1,19,18,False,0
Place Albert Kahn,48.895797,2.345586,0,0,0,True,0
Gare du Nord - Denain,48.879596,2.354473,2,20,17,True,2
Lecourbe - Jean Maridor,48.837964,2.287739,9,19,10,False,2
Grenelle - Violet,48.84993,2.294612,29,35,6,True,5
Repos - Cimetière du Père Lachaise,48.859359,2.389613,22,33,11,True,4
Mouton Duvernet - Général Leclerc,48.831633,2.329312,2,39,37,True,2
Enghien - Faubourg Poissonnière,48.87242,2.348395,3,33,26,False,0
Place Robert Guillemard,48.836192,2.281127,20,24,4,False,0
Raspail - Chomel,48.852233,2.326658,21,49,27,True,3
Marc Sangnier - Porte de Vanves,48.825219,2.310712,2,21,17,False,1
Etienne Jodelle - Saint Ouen,48.88794,2.326124,9,33,21,False,1
Marcelin Berthelot,48.841547,2.233162,13,27,12,False,2
Guy Môquet - Etienne Dolet,48.81527,2.298078,9,23,13,False,7
Jean Jaurès - Presles,48.907134,2.396006,3,30,25,True,3
Boissière - Etienne Dolet,48.876111,2.467731,7,21,14,False,7
Edouard Tremblay - Julian Grimaux,48.781384,2.372351,13,30,16,False,1
Bertie Albrecht - Hoche,48.87614,2.301303,4,32,28,True,3
Sibelle - Alésia,48.826702,2.338498,11,25,14,False,7
Hôtel de Ville de Boulogne Billancourt,48.834959,2.24168,16,26,9,True,4
Cevennes - Bergers,48.842408,2.281038,14,29,14,True,6
Molière - République,48.811116,2.314574,19,30,11,False,12
Chevaleret - Tolbiac,48.82941,2.375934,11,21,10,True,4
Hoche - Jean Lolive,48.891102,2.402844,12,24,11,True,9
David Weill - Parc Montsouris,48.821092,2.333726,2,22,20,True,2
Hôtel de Ville de Nanterre,48.892372,2.205549,21,38,16,True,13
Marcadet - Barbès,48.890451,2.349057,8,37,27,True,3
Vaneau - Sèvres,48.848563,2.320422,23,35,10,False,8
Jean Jaurès - Salvador Allende,48.821476,2.302658,21,43,21,False,12
François Debergue - Croix de Chavaux,48.857422,2.437578,11,57,45,True,5
Nationale - Place Jules Guesde,48.82754,2.241605,10,23,13,False,4
Gabriel Péri - Danielle Casanova,48.790114,2.402578,17,20,3,True,2
Route de la Muette - Porte de Neuilly,48.879893,2.258767,22,50,25,True,0
Carnot - Pâquerettes,48.795929,2.426184,21,26,5,False,3
Tertres - Fontaine,48.787554,2.306236,6,28,22,False,6
Gare Rer de Fontenay sous Bois,48.843628,2.463046,16,61,44,True,5
Raspail - Manufacture des Oeillets,48.809446,2.390301,13,32,19,True,10
Lucie Aubrac - Franklin,48.862239,2.443586,2,36,33,True,2
Place de l'Eglise - Vitry-sur-Seine,48.791923,2.395058,25,28,3,False,1
Noisy le Sec - Jean-Baptiste Clément,48.874515,2.415284,13,22,7,False,11
Marcelle - Thalie,48.883546,2.413788,2,20,16,True,2
Henri Ste-Claire Déville - Paul Héroult,48.892663,2.172411,5,24,19,False,4
Louis Lumière - Porte de Bagnolet,48.864311,2.410521,1,20,19,False,1
Paris - Emile Zola,48.854898,2.418669,7,30,22,True,7
Victor Hugo - Galliéni,48.83802,2.246085,22,34,11,True,7
Victoire - Chaussée d'Antin,48.875066,2.331674,3,24,21,True,0
Proudhon - Président Wilson,48.906443,2.358491,16,30,14,False,5
Square Georges Melies,48.840702,2.409668,13,40,27,False,9
Galilée - Kléber,48.867412,2.290781,5,32,27,True,1
Richard Lenoir - Jean-Pierre Timbaud,48.865804,2.369337,6,36,30,True,1
Legendre - Dulong,48.885325,2.316424,3,23,20,True,1
Bosquet - Saint-Dominique,48.858652,2.303717,16,28,11,True,6
Chemin Vert - Saint-Maur,48.861125,2.381299,4,45,40,True,3
Quai Panhard et Levassor,48.828375,2.384274,28,57,29,True,2
Square du Théâtre du Garde-Chasse,48.881287,2.42012,6,50,44,False,6
Botzaris - Parc des Buttes Chaumont,48.877951,2.381464,4,20,16,False,2
Faubourg Montmartre - La Fayette,48.875255,2.340854,4,35,30,True,3
Joseph Liouville - Croix Nivert,48.844835,2.297508,20,64,41,True,5
Place Madeleine Daniélou,48.883498,2.282015,16,42,25,False,6
Estrapade - Ulm,48.845128,2.345457,3,16,13,False,3
Parmentier - République,48.864495,2.375012,0,50,49,True,0
Lieutenant Chauré - Etienne Marey,48.867462,2.405971,3,20,17,True,3
Cujas - Saint-Michel,48.848191,2.341832,2,19,17,True,2
Flandre - Alphonse Karr,48.89465,2.381868,1,26,23,True,1
Larmeroux - Baudelaire,48.81694,2.280989,5,29,24,False,3
Jean-François Lépine - Stephenson,48.886115,2.356856,7,22,12,True,4
Messine - Place Du Pérou,48.875448,2.315508,9,12,3,True,1
Beffroy,48.886591,2.261395,6,26,19,True,2
Molitor - Chardon-Lagache,48.845209,2.265684,10,34,23,True,5
Général De Gaulle - Alouette,48.839109,2.417566,26,26,0,True,9
Abbé Carton - Plantes,48.827674,2.320918,10,25,13,False,7
Marie-Georges Picquart - Pereire,48.888637,2.311171,5,32,27,False,1
Sablons - Georges Mandel,48.863875,2.28189,16,38,21,False,7
Gare RER de Vincennes,48.847563,2.433383,23,51,28,False,5
Villette - Belleville,48.872688,2.376461,7,48,35,True,3
Théophile Gautier - François Millet,48.850348,2.27303,20,30,10,False,0
Edouard Vaillant - Galliéni,48.858463,2.414795,5,49,44,False,3
Marché Secrétan,48.881255,2.373463,8,26,14,True,6
Quai de l'Aisne - Général Leclerc,48.895713,2.400571,5,27,21,True,5
Mairie du 11ème,48.858925,2.378976,17,51,34,True,3
Auguste Cain - Jean Moulin,48.82577,2.321042,7,40,33,False,5
Volontaire - Lecourbe,48.843514,2.306552,15,31,16,True,3
Lakanal - Commerce,48.844425,2.294059,14,53,39,True,5
Miromesnil - La Boétie,48.873722,2.315848,8,35,26,True,1
Marseille - Beaurepaire,48.871624,2.363927,11,55,41,False,3
Mathurins - Auber,48.872989,2.329498,9,36,26,True,4
Saint-Germain - Thenard,48.850571,2.347102,7,31,22,True,1
Square d'Anvers,48.882633,2.344884,2,33,30,True,1
Arago - Glacière,48.834861,2.344577,12,27,14,True,2
Mairie d'Ivry-sur-Seine,48.810571,2.384283,26,53,26,False,6
Parc Georges Brassens - Brancion,48.832278,2.302257,16,29,13,True,3
Parmentier - Abel Rabaud,48.869213,2.371689,1,52,51,True,1
Place Paul Eluard,48.767204,2.414498,18,19,1,True,5
Exelmans - Michel-Ange,48.843095,2.259777,14,33,18,True,4
Pierret - Madrid,48.882977,2.260126,3,28,25,True,1
Reims - Raymond Pitet,48.8888,2.296319,19,37,16,False,1
Saint-Vincent - Verdun,48.819212,2.254008,30,34,1,False,8
Grand Prieuré - Crussol,48.864661,2.369227,9,49,40,False,2
Claude Debussy - Marc Bloch,48.910388,2.311777,19,56,35,False,11
Aristide Briand - Gare de Bagneux,48.793873,2.321149,6,22,16,True,5
Parc Roger Salengro,48.905304,2.310559,15,35,18,False,5
Seine - Flandre,48.886786,2.374619,7,19,12,True,3
Hautpoul - Jean Jaurès,48.886394,2.386541,6,32,25,True,5
Chemin Vert - Fraternité,48.877141,2.446157,3,20,16,False,3
Laumière - Petit,48.884674,2.380039,11,34,23,True,3
Wilson - Métallurgie,48.909423,2.358444,9,28,16,False,3
Madame de Sanzillon - Mozart,48.903798,2.31874,7,22,11,True,2
Mairie du 7ème,48.857797,2.319266,5,27,22,False,1
Charonne - Faubourg Saint-Antoine,48.852192,2.374093,4,34,28,True,3
Gare Routière de Saint Cloud,48.842882,2.222245,12,31,18,True,8
Gare Arcueil - Cachan,48.799824,2.328171,9,26,17,True,5
Raspail - Bac,48.855629,2.32566,30,52,21,True,2
Gare RER de Gentilly,48.81428,2.341035,17,30,13,False,8
Boyer - Ménilmontant,48.868895,2.391982,0,19,0,False,0
Aristide Briand - Place de la Résistance,48.821242,2.2511,36,25,2,True,10
Place Jean Ferrat,48.818495,2.374417,20,25,5,False,12
Villiers de l'Isle Adam - Pyrénées,48.867362,2.396222,5,20,14,False,5
Saint Georges - d'Aumale,48.877786,2.33743,0,23,22,True,0
Stalingrad - Désiré Chevalier,48.856702,2.445072,11,42,31,False,10
Porte d'Ivry,48.821769,2.368871,9,50,40,False,8
Victor Hugo - Ecoles,48.80476,2.418037,18,25,7,True,8
Hôpital Bégin,48.845717,2.427246,17,26,9,True,5
Belleville - Couronnes,48.868831,2.380986,3,50,47,True,2
Charenton - Diderot,48.846171,2.379307,15,18,3,True,2
Stephenson - Doudeauville,48.888537,2.356161,19,36,16,True,9
Jules Ferry - Faubourg du Temple Paris,48.868397,2.367893,17,58,41,True,3
Place de l'Édit de Nantes,48.88879,2.3785,13,30,16,True,5
Anatole France - Louise Michel,48.888732,2.288158,21,50,27,True,10
Temple - Jean-Pierre Timbaud,48.864466,2.36606,5,36,30,False,1
Guynemer - Séverine,48.830917,2.279071,16,26,10,True,5
Jean Macé - Faidherbe,48.853375,2.382862,14,63,49,True,2
Gaston Roussel - Commune de Paris,48.89432,2.432552,13,30,15,True,12
Bienfaisance - Place de Narvik,48.876602,2.312977,7,36,29,False,2
Montgallet - Charenton,48.842648,2.386165,10,16,5,True,3
Place Jacques Madaule,48.823934,2.260692,24,25,0,False,3
Bourse du Travail,48.868977,2.362344,8,17,7,True,6
Jacques Callot - Mazarine,48.85528,2.337574,13,28,15,True,0
Parmentier - Hôpital Saint-Louis,48.87138,2.369896,6,43,35,True,1
Richard Wallace - Place du 8 Mai 1945,48.878668,2.242034,25,30,5,True,18
Faustin Hélie - Desbordes-Valmore,48.859403,2.276522,6,33,22,False,3
Quai aux Fleurs - Pont Saint-Louis,48.852916,2.352196,17,21,2,True,9
Porte de Vincennes,48.846454,2.415514,10,33,21,False,1
Flandre - Riquet,48.888013,2.37376,2,21,19,True,2
Place de la Porte de Châtillon,48.824247,2.318631,14,59,45,True,1
Montreuil - Gonnet,48.850501,2.389086,17,24,6,False,5
Dupleix - du Guesclin,48.851479,2.29671,30,47,15,True,5
Montgallet - Reuilly,48.844291,2.389648,9,16,7,True,1
Varenne,48.857203,2.315277,3,47,44,True,0
Place des Ternes.,48.878439,2.297728,9,46,37,True,3
Ancien Canal - Hélène Brion,48.894848,2.418834,4,23,17,True,1
Departement - Pajol,48.886675,2.361361,17,19,2,False,13
Boulets - Voltaire,48.852187,2.38903,15,24,9,False,5
Fragonard - Porte de Clichy,48.894156,2.314389,30,56,24,False,5
Lacuée - Lyon,48.849268,2.370459,9,16,7,True,3
Jardin d'Acclimatation,48.878772,2.270772,6,33,25,True,4
Gare Montparnasse - René Mouchotte,48.839204,2.320884,11,39,27,True,7
Charles de Gaulle - Jean Lolive,48.893264,2.412677,3,26,21,False,3
Paul Vaillant Couturier - Chaptal,48.89348,2.277525,20,39,17,True,10
Place de la Fraternité,48.857164,2.422847,9,22,13,True,8
Vincent Auriol - Louise Weiss,48.834002,2.370389,12,22,9,False,2
Gare de Laplace,48.808932,2.334946,15,43,28,True,10
Bayen - Pereire,48.881804,2.292109,13,22,8,False,5
Quai de la Loire - Jean Jaurès,48.883397,2.371075,2,16,14,True,2
Gare de Lyon - Roland Barthes,48.843957,2.379088,64,68,3,False,6
Route de Sèvres - Porte de Bagatelle,48.87526,2.249416,16,66,48,True,11
Commandant Rivière,48.872933,2.309796,1,27,26,True,1
Gare de Pont-Cardinet,48.887139,2.314494,8,34,26,True,4
Bordier - Félix Faure,48.903908,2.383006,19,48,26,False,9
Jussieu - Fossés Saint-Bernard,48.847186,2.353486,13,39,24,True,3
Charonne - Avron,48.851603,2.398403,7,27,20,True,2
Félix Faure - Sadi Carnot,48.908121,2.378623,10,33,21,True,7
Square Cambronne,48.847567,2.302569,26,59,32,True,2
Lemercier - Cardinet,48.890097,2.317378,3,24,21,False,3
18 juin 1940 - Buzenval,48.868807,2.185428,5,25,19,False,5
Porte de la Villette,48.898352,2.38615,3,27,23,True,1
Ouest - Château ,48.836173,2.319392,6,23,17,True,5
Place aux Étoiles,48.918356,2.352343,4,40,36,True,3
Flandrin - Henri Martin,48.864328,2.272417,2,18,16,True,2
Alexandre Dumas - Voltaire,48.852889,2.389148,28,59,30,False,10
Jean Colly - Tolbiac,48.827817,2.370549,18,36,18,True,7
Pirogues de Bercy - Libourne,48.832308,2.38637,12,49,37,True,5
Place Jean-Baptiste Clément,48.812405,2.361709,6,25,17,False,6
Verdun - Place Henri IV,48.870797,2.2277,20,26,4,True,16
Picpus - Louis Braille,48.839989,2.400526,20,44,22,True,9
Porte d'Auteuil,48.847939,2.26084,3,33,30,False,2
Sarrette - Général Leclerc,48.825031,2.326413,6,22,15,True,4
Réunion - Avron,48.852567,2.403928,10,26,16,False,6
Bastille - Biscornet,48.851356,2.36922,13,62,48,True,2
Square des Saint-Simoniens,48.87018,2.396727,3,25,22,False,3
Petit - Manin,48.886507,2.393816,3,22,18,True,2
Place des Marseillais,48.826639,2.405928,13,37,24,True,9
Gare Rosny-Bois-Perrier,48.88115,2.480437,22,36,12,True,3
Chanzy - Sud-Est,48.888912,2.195632,10,25,14,False,1
Jussieu - Guy de la Brosse,48.845665,2.355653,7,40,31,False,2
Gabrielle Josserand - Edouard Vaillant,48.902716,2.393327,8,25,17,True,1
Square René Viviani - Montebello,48.851905,2.347842,9,34,24,True,2
Jean Lolive - Parc Stalingrad,48.892062,2.409174,10,22,9,True,8
Courcelles - Place des Ternes,48.8782,2.299286,1,31,29,False,0
Cambronne - Villa Croix Nivert,48.845848,2.301757,32,62,30,False,11
Victor Hugo - Magasins Généraux,48.903281,2.368072,6,34,27,False,0
Gare Saint-Lazare - Cour du Havre,48.875674,2.32656,27,45,24,True,7
Guichet - Jean Jaurès,48.90517,2.302384,25,28,2,False,13
Claude Bernard - Arbalète,48.839767,2.347511,5,17,12,False,0
Rapp - Place du Général Gouraud,48.858103,2.300407,20,31,9,True,4
Edgar Quinet - Gaité,48.841161,2.324595,5,27,18,True,3
Place Carnot,48.855939,2.441532,7,25,18,True,2
Gravelle - Route du Bac,48.824407,2.418455,16,51,33,True,11
René Boulanger - Lancry,48.868543,2.360003,6,62,56,True,1
Ceinture du Lac Inferieure - Saint-Cloud,48.862181,2.261787,3,42,39,True,0
Anatole France - Jean Lolive,48.894992,2.425376,6,28,21,True,4
Boyer-Barret - Raymond Losserand,48.833299,2.317338,1,23,22,True,1
Piat - Parc de Belleville,48.871956,2.384981,15,21,6,False,2
Lagny - Joffre,48.849307,2.41795,8,31,23,False,2
Parc Monceau,48.881078,2.309549,2,18,15,False,2
Porte d'Orléans,48.822764,2.324931,11,48,36,True,5
Place Falguière,48.8363,2.310446,9,23,14,False,5
Vignerons - Minimes,48.841486,2.430793,14,29,15,True,3
Emeriau - Place de Brazzaville,48.850785,2.287159,39,51,11,True,2
Ecole Militaire - Place Joffre,48.85206,2.301799,12,26,12,True,1
Gare d'Austerlitz - Quai Saint-Bernard,48.84369,2.365716,0,27,27,True,0
Sommerard - Saint-Jacques,48.85031,2.345016,16,34,18,True,1
Tardieu - Chappe,48.884147,2.341845,0,18,17,False,0
Petites Ecuries - Faubourg Poissonnière,48.873972,2.348389,13,17,2,False,3
Gare de Bercy,48.839795,2.382607,34,35,0,True,8
Pierre Ginier - Clichy,48.886767,2.326228,2,16,14,True,2
Batignolles - Place de Clichy,48.883475,2.326493,2,47,44,True,2
Francoeur - Marcadet,48.891041,2.340015,8,20,9,True,8
Henri Chevreau - Couronnes,48.870332,2.388778,3,27,24,True,1
Pascal - Claude Bernard,48.839062,2.349978,23,49,26,True,1
Place Valhubert,48.844183,2.364037,16,37,19,True,2
Lamennais - Washington ,48.87353,2.303445,1,26,23,False,1
Lauriston - Copernic,48.86926,2.289918,3,19,12,False,2
Pierre Grenier - Pont de Billancourt,48.825802,2.248799,16,21,5,False,8
Vasco de Gama,48.836718,2.283664,43,54,11,False,4
Bineau - Louise Michel,48.886662,2.284327,0,0,0,False,0
Professeur René Leriche - Général Leclerc ,48.907828,2.307888,20,50,29,True,12
Bara - Henri Farman,48.833218,2.267757,16,36,20,False,2
Carrefour Pleyel,48.920342,2.343854,34,36,4,True,14
Navier - Epinettes,48.895878,2.322678,8,36,27,True,3
Ledru-Rollin - Charonne,48.853459,2.377246,16,32,15,False,2
Parc de Belleville - Julien Lacroix,48.870346,2.384221,3,26,21,False,3
Gare de l'Est - Verdun,48.876156,2.360915,6,14,5,False,4
Charenton - Place du Col Bourgoin,48.844867,2.382579,30,35,4,True,0
Morice - Général Leclerc,48.902455,2.312893,18,25,6,False,13
Lucien Sampaix - Récollets,48.87433,2.362123,8,46,38,True,1
Place Jean Delay,48.823316,2.354336,15,35,20,False,9
Pont de Levallois-bécon ,48.898418,2.279131,11,50,38,True,2
Place Violet,48.844879,2.290576,23,30,7,False,4
Jonquoy - Didot,48.828905,2.316481,11,30,18,False,10
Place du Général de Gaulle,48.852529,2.487733,7,28,19,True,5
Quai Voltaire,48.858943,2.331418,19,32,12,True,3
Dunois - Clisson,48.832294,2.367452,34,51,16,True,15
Edouard Vaillant - Paul-Adolphe Souriau,48.834846,2.247946,4,28,24,False,3
Michelet - Assas,48.842742,2.335021,7,18,10,False,3
Porte Dorée,48.835434,2.407713,22,36,12,True,5
Félix Faure - Lourmel,48.838689,2.281808,44,58,13,True,3
Belleville - Porte des Lilas,48.876604,2.40477,6,32,25,False,5
Haxo - Surmelin,48.869437,2.405397,4,21,15,False,4
Gare de l'Est - Place du 11 Novembre 1918,48.876327,2.358546,8,40,31,True,6
Porte de Clignancourt.,48.897488,2.343996,14,56,40,True,9
Primo Levi - Frigos,48.830948,2.379654,21,34,12,True,3
Place Alphonse Deville,48.850188,2.327596,7,23,15,False,1
Hôtel de Ville d'Argenteuil,48.946504,2.24964,8,30,21,True,3
Mézières - Rennes ,48.850235,2.330382,7,55,48,True,1
Place Adolphe Cherioux - Vaugirard,48.839594,2.301066,22,63,40,True,10
Charles de Gaulle - Madrid,48.884432,2.260804,8,22,13,True,2
Tanger - Place du Maroc,48.886252,2.36893,0,19,19,False,0
Ménilmontant - Pelleport,48.870683,2.39896,3,19,15,False,3
Vincennes - Douy-Delcupe,48.854937,2.436049,7,38,31,False,1
Place du Cornillon - Stade de France,48.925407,2.364443,3,34,28,True,2
Belfort - Voltaire,48.856336,2.38299,14,39,25,True,8
Porte de Saint-Ouen - Henri Huchard,48.898708,2.329536,14,26,3,False,6
Place du Maréchal Juin - Péreire,48.885263,2.298286,2,46,40,True,2
Victoria - Place du Chatelet,48.857993,2.346917,1,22,20,True,1
Vinaigriers - Magenta,48.873117,2.359305,2,25,22,True,2
République - Danton,48.852492,2.462035,5,20,15,False,4
Colonel Monteil - Brune,48.826503,2.309275,1,19,18,False,1
Gare d'Asnières sur Seine,48.906365,2.283507,20,24,2,True,14
Verdun - Adrien Damalix,48.822233,2.421533,12,26,14,True,8
Milton - Manuel,48.878249,2.341181,0,22,22,False,0
Edouard Pailleron - Simon Bolivar ,48.879799,2.374839,3,24,21,False,3
Mac-Mahon - Brey,48.877532,2.294513,2,25,23,True,2
Eglise d'Auteuil,48.847498,2.268484,5,21,15,False,2
Lepic - Armée d'Orient,48.887536,2.334308,6,24,18,False,4
Jean Jaurès - Jean Baptiste Clément ,48.845763,2.236965,15,24,9,True,8
Château - Bineau,48.890404,2.270106,7,23,15,True,1
Courcelles - Pierre Demours,48.88377,2.298585,10,26,15,True,1
Mairie du 18ème,48.892939,2.344551,21,40,16,True,19
Bridaine - Lamandé,48.886207,2.320624,4,29,25,False,1
Porte de Ménilmontant,48.869154,2.409322,11,15,4,False,0
Laffitte - Italiens,48.871816,2.337202,0,33,32,False,0
Place Lafayette,48.829655,2.263868,54,62,8,True,4
Indre - Prairies,48.862544,2.40329,5,38,33,False,5
Lourmel - Marie Skobtsov,48.844974,2.287283,17,22,3,False,7
Belleville - Télégraphe,48.875604,2.399555,2,41,38,False,2
Danton - Serpente,48.852297,2.341413,9,22,13,True,1
Cité des Sciences et de l'Industrie,48.896596,2.384599,5,30,23,True,4
Place de Verdun,48.820282,2.473775,25,40,15,False,6
Square des Epinettes,48.893839,2.325954,13,20,6,False,8
Les Planètes ,48.809985,2.458085,16,16,0,False,5
Chabrol - d'Hauteville,48.877018,2.351318,4,11,6,False,2
Square du Carrefour de l'Insurrection,48.820865,2.291113,0,23,23,False,0
Square Saint-Ambroise,48.860934,2.375841,4,43,37,True,3
Hameau Fleuri - Marché,48.831449,2.24124,21,22,1,False,4
Pajol - Riquet ,48.8896,2.362853,23,47,20,True,11
Lassus - Delouvain,48.875504,2.389033,2,20,18,False,2
Emile Blemont - Poteau,48.894378,2.341512,6,39,31,True,2
Jean Bleuzen - Square du 11 Novembre,48.823258,2.296521,6,49,41,True,6
Orteaux - Mouraud,48.855586,2.408763,3,24,21,False,3
François Ponsard - La Muette ,48.858367,2.274452,4,23,19,True,2
Provence - Chaussée d'Antin,48.874284,2.332977,1,25,23,True,0
Ledru-Rollin - Place du Père Chaillet,48.856434,2.379021,31,37,3,True,4
Assas - Vaugirard,48.848274,2.329241,2,35,32,False,1
Pelleport - Belgrand,48.865001,2.403981,7,15,8,False,4
Ordener - Poissonniers,48.891214,2.351289,19,35,16,True,16
Place Etienne Pernet,48.842435,2.292182,23,43,19,True,2
Mairie du 10ème,48.872089,2.357583,4,19,12,True,1
Porte d'Aubervilliers,48.898597,2.368972,2,55,51,False,2
Sadi Carnot - François Mitterrand ,48.875327,2.424162,5,27,22,False,5
Bellefond - Maubeuge,48.878255,2.345264,3,31,28,True,0
Théâtre - Lourmel,48.848207,2.289866,37,53,15,True,5
Aubervilliers - Curial,48.890883,2.368858,1,23,21,True,1
Champs-Elysees - Bassano,48.871812,2.300239,0,25,25,True,0
Balard - Montagne de la Fage,48.838507,2.278287,20,36,16,False,4
Place Pasdeloup,48.862654,2.367033,11,21,9,True,1
Méchain - Faubourg Saint-Jacques,48.835868,2.33798,5,16,11,False,0
Stade Auguste Delaune,48.808964,2.43452,18,21,2,True,4
Maison de Radio - France,48.851329,2.277786,34,47,12,True,3
Square Léon,48.886674,2.353206,6,33,26,False,6
Jean-Baptiste Pigalle - La Bruyere,48.879398,2.333709,4,17,13,True,2
Transvaal - Charles de Gaulle ,48.84828,2.237342,11,27,16,True,6
Belliard - Damrémont,48.896692,2.338023,17,34,16,True,11
Mozart - Jasmin,48.852861,2.268484,6,62,55,True,4
Boulets - Faubourg Saint-Antoine,48.849259,2.391755,18,43,24,False,6
Haies - Réunion,48.853869,2.402426,9,22,13,False,3
Maine - Antoine Bourdelle,48.843085,2.320264,4,17,13,True,2
Kléber - Gouverneur Général Eboué,48.826886,2.272341,17,24,7,False,0
Président Wilson - Jean Jaures,48.890341,2.292068,18,27,5,False,8
Pyrénées - Maraîchers,48.85714,2.404351,15,19,4,True,11
Beaujon - Wagram,48.875352,2.296442,4,29,25,True,1
Place Jacques Bonsergent,48.870948,2.361205,16,33,17,True,5
Naples - Rome,48.879961,2.321359,4,26,22,True,4
Place de Passy,48.857803,2.277501,4,15,11,False,2
Gare RER de Saint-Denis,48.935543,2.347149,17,40,20,True,7
Pont Neuf - Rivoli,48.86009,2.344058,2,27,25,True,2
Gare du Nord - Dunkerque,48.880424,2.352764,9,29,14,True,5
Lavandieres Sainte Opportune - Rivoli,48.85928,2.346622,5,27,22,False,1
Musée d'Orsay,48.859726,2.32586,25,65,39,True,4
Bassano -  Iéna,48.868145,2.29615,3,15,12,False,2
Clichy - Place Blanche,48.883601,2.333224,3,20,17,True,3
8 Mai 1945 - 10 Juillet 1940,48.784567,2.397904,21,30,6,True,5
Diderot - Pierre Bourdan,48.847649,2.390258,10,21,11,False,4
Lallier - Trudaine ,48.881092,2.340822,3,29,24,True,3
Gare du Nord - Saint-Vincent de Paul,48.880956,2.352431,2,24,21,False,0
Pereire - Place de Wagram,48.887071,2.304111,2,46,43,True,2
Traversière - Ledru-Rollin,48.850736,2.37587,11,34,23,True,1
Ménilmontant - Père Lachaise,48.863287,2.386994,15,41,25,True,4
Sabot - Rennes,48.852575,2.331553,6,26,20,True,4
Palais des Sports,48.833469,2.285872,21,22,0,True,1
Fontainebleau - Edmond Michelet,48.809564,2.362691,15,45,30,True,4
Hôpital Pitié Salpêtrière,48.837702,2.360495,12,50,38,True,5
Chernoviz - Raynouard,48.856986,2.282173,3,37,32,False,2
Eugène Oudiné - Dessous Des Berges,48.825642,2.375023,20,44,24,False,3
Mont Valérien - Michel Salles,48.856192,2.215297,4,24,19,True,4
Place du Moulin de Javel,48.840217,2.271606,7,45,37,False,3
Batignolles - Rome,48.881823,2.320259,0,15,13,False,0
Neuve Saint-Pierre - Beautreillis,48.853554,2.363912,13,20,5,False,2
Alfred Roll - Berthier,48.887809,2.300095,14,28,14,False,5
Pernety - Raymond Losserand,48.834255,2.317609,8,32,24,True,7
Gare Montparnasse - Vaugirard,48.841807,2.31951,18,66,46,False,8
Villersexel - Saint-Germain,48.858297,2.323793,1,16,14,False,1
Sénat - Condé,48.849542,2.337939,6,33,27,True,1
Granges aux Belles - Hôpital Saint-Louis,48.874795,2.366669,3,60,56,True,1
Parc de Choisy,48.828156,2.358514,0,0,0,False,0
Aqueduc - Villette,48.883886,2.367199,8,28,18,False,6
Belleville - Pyrénées,48.874191,2.386004,3,42,38,False,2
Calmette,48.881049,2.424993,7,32,24,False,7
Billancourt - Général Leclerc ,48.832265,2.238041,5,22,17,True,4
Manin - Simon Bolivar,48.8765,2.379407,9,26,13,True,8
Greneta - Sebastopol,48.865242,2.351667,10,32,21,True,3
Favart - Italiens,48.871446,2.33829,0,17,17,False,0
Parvis Corentin Celton,48.827473,2.278432,37,55,17,True,5
Parc André Citroën,48.84064,2.278062,45,65,19,True,3
François 1er - Montaigne,48.866888,2.306676,3,29,23,True,1
Roquépine - Malesherbes,48.873451,2.320404,6,37,31,True,4
Bois de Vincennes.,48.833806,2.413222,6,60,54,True,2
Surcouf - Université,48.861273,2.309454,10,58,44,True,2
Ney - Charles Hermite,48.898748,2.364575,6,20,12,True,2
Faubourg Poissonniere - Delta,48.882556,2.349748,1,36,35,True,1
Saint-Amand - Labrouste,48.834097,2.308768,12,36,23,True,9
Place du Maquis du Vercors,48.877322,2.408378,14,31,17,True,4
Jeanne Hornet - Girardot,48.873803,2.42782,3,29,24,False,3
Uzès - Montmartre,48.870791,2.343101,2,29,26,True,1
Duroc - Place de Breteuil,48.847461,2.312614,22,42,20,False,6
Vieille du Temple - Francs Bourgeois,48.858256,2.358218,8,29,21,True,2
Gare du Nord - Demarquay,48.881154,2.358411,4,30,26,True,1
Place François Mitterand,48.864928,2.442958,3,34,30,True,1
Hôtel de Ville de Champigny sur Marne,48.813811,2.509676,20,21,1,True,5
Place Pigalle,48.882756,2.336157,3,21,18,True,1
Bastille - Beaumarchais,48.853833,2.36857,8,23,13,True,3
Poissonniers - Nord,48.892511,2.352223,11,28,17,False,9
Marignan - Champs-Elysées,48.869496,2.306614,1,35,33,True,0
Reims - Porte d'Asnières,48.891834,2.300145,18,26,8,False,3
Saint-Jacques - Tombe Issoire,48.833206,2.336911,8,23,15,True,6
Hôtel de Ville - Pont-Marie,48.8539,2.356947,17,36,17,True,1
Bercy.,48.839967,2.378863,64,66,1,False,4
Centenaire - Sorins,48.858535,2.427351,16,45,28,False,14
Saint-Blaise - Mouraud,48.856962,2.408695,4,27,23,False,3
Romain Rolland,48.820215,2.323414,8,25,17,False,7
Damrémont - Caulaincourt,48.887145,2.332588,1,18,17,False,1
Parmentier - Fontaine au Roi,48.867877,2.372706,4,48,44,True,3
Square Desnouettes,48.834768,2.284142,13,22,9,False,3
Brochant - Square des Batignolles ,48.888187,2.316861,6,31,24,True,4
Hôtel de Ville de Levallois Perret,48.893145,2.288882,19,26,3,True,9
Mairie de Clichy,48.903654,2.305935,41,51,10,True,16
Square Raymond Souplex,48.891837,2.335426,5,52,45,True,3
Convention - Saint-Charles,48.843156,2.283109,18,19,1,True,3
Keller - La Roquette,48.855551,2.375278,21,34,10,False,2
Pont de Lodi - Dauphine,48.855297,2.339947,8,23,12,True,1
Thérèse - Opéra,48.866484,2.334433,3,25,22,True,0
Place de Finlande,48.862408,2.311362,4,25,21,True,2
Ney - Porte de Montmartre,48.897918,2.336487,11,24,13,False,8
Rougemont - Poissonnière,48.871612,2.345873,1,30,29,True,0
Lagny - Auguste Blanqui,48.849226,2.42186,6,27,21,False,3
Mairie du 15ème,48.841776,2.298654,21,32,9,True,5
Place des Larris,48.856836,2.478024,8,34,26,False,6
Manin - Crimée,48.883122,2.386367,8,23,15,True,8
Nationale - Marcel Duchamp,48.824637,2.367801,12,23,11,False,8
Franciade - Gabriel Péri,48.932615,2.355954,13,26,12,False,4
Charonne - Philippe-Auguste,48.855603,2.390546,11,32,21,False,6
Charles Delescluze,48.852422,2.380632,30,49,18,False,8
Paul Doumer - La Tour,48.860116,2.28084,2,34,32,True,1
Poissy - Saint-Germain,48.849696,2.352969,20,25,5,True,2
Vistule - Choisy,48.823655,2.361572,3,33,29,False,3
Gambetta - Michelet,48.852738,2.429966,4,33,29,True,3
Les Juilliottes,48.804307,2.443736,17,21,4,False,9
République - Henri Barbusse,48.906616,2.389432,29,32,3,True,16
Jeûneurs - Mulhouse,48.868997,2.346925,4,28,23,False,3
Danielle Casanova - Place Vendôme,48.868266,2.330484,15,37,21,True,1
Versailles - Claude Terrasse,48.840219,2.263834,39,46,6,True,4
Claude Vellefaux - Sambre et Meuse,48.875022,2.370478,8,34,26,False,4
Faidherbe - Dahomey,48.851358,2.383823,19,44,24,False,5
Fernand Braudel - Vincent Auriol ,48.836379,2.37234,18,36,17,True,3
Porte Saint-Martin,48.868602,2.355701,3,34,31,False,3
Gare de l'Est - Chateau Landon,48.879305,2.362424,5,59,53,True,4
Place Saint-Ferdinand,48.878155,2.288518,4,38,34,False,0
Le Vau - Maurice Bertaux,48.868034,2.411031,2,25,22,False,2
Place du Canada,48.865346,2.310194,2,39,35,True,1
Arsène Houssaye - Champs-Elysées,48.873409,2.29779,2,29,25,True,1
Daunou - Louis le Grand,48.869113,2.332515,1,17,16,True,0
Bleue - Trévise,48.875789,2.34729,3,30,25,True,1
Parc de Sceaux - Centre-Ville,48.776953,2.295721,4,33,29,True,3
Sorbonne - Ecoles,48.849687,2.3435,6,50,43,True,1
Place Mireille Havet,48.850533,2.383756,29,43,14,True,2
Pierre Sarrazin - Saint-Michel,48.850908,2.342131,10,33,21,False,2
Mornay - Sully,48.849704,2.364461,6,15,9,False,4
Bachaumont - Montmartre,48.866174,2.344978,1,33,32,True,0
Place Tony de Graaff,48.818164,2.245811,40,42,0,False,7
François 1er - Lincoln,48.869518,2.302426,5,31,24,False,5
Blaise-Desgoffe - Vaugirard,48.846129,2.324267,8,32,24,False,5
Ferrus - Saint-Jacques,48.831388,2.340856,15,34,19,True,5
Lamartine - Faubourg Montmartre,48.876614,2.339766,0,32,30,True,0
Mairie du 19ème,48.882563,2.381262,16,27,9,True,16
Odessa - Départ,48.842886,2.324428,1,39,38,True,0
Quai Marcel Boyer - Victor Hugo,48.822556,2.39204,19,29,9,True,8
Jardin Marguerite Long,48.881699,2.283658,5,22,17,False,1
Place de l'Eglise - Pantin,48.892809,2.412435,3,30,25,True,3
Melun - Jean Jaurès,48.88378,2.376477,11,28,16,True,6
Suffren - Pérignon,48.847176,2.307052,41,46,5,True,9
Jean Jaurès - Reine,48.840096,2.239873,6,31,23,True,2
Argenson - Château,48.888559,2.2642,5,25,18,False,2
Square du Bataclan,48.863376,2.371133,9,20,11,True,1
Butte aux Cailles - Esperance,48.827588,2.349215,4,36,32,True,3
Louis Ganne - Davout,48.863387,2.409726,3,30,27,False,2
Roquette - Folie Regnault,48.859247,2.386554,9,52,42,False,6
Vignes - Boulainvilliers,48.856399,2.27524,5,21,16,False,1
Tremblay - Lac des Minimes,48.834131,2.454752,7,48,41,True,2
Terroirs de France - Lheureux,48.83212,2.388618,19,55,35,False,11
Place Marcel Sembat,48.833289,2.244175,27,56,29,True,1
Censier - Jardin des Plantes,48.841072,2.355475,21,28,3,True,4
Brochant - Clichy,48.89033,2.319731,9,53,38,True,3
René Binet - Porte de Montmartre,48.899051,2.336553,17,37,19,False,8
Charles de Gaulle - Plateau de Vanves,48.822331,2.298572,6,33,27,True,5
René Coty - Parc Montsouris,48.824791,2.336125,13,55,42,True,11
François Truffaut - Saint Emilion,48.833724,2.386602,36,66,27,True,2
Lac Daumesnil - Saint-Maurice,48.827746,2.418365,1,50,49,True,1
Montreuil - Voltaire,48.850507,2.393076,13,34,21,False,3
Léon - Doudeauville,48.888324,2.353573,4,13,9,False,3
Moulin de la Pointe,48.820929,2.356318,11,22,11,False,8
Place du 8 mai 1945.,48.938882,2.356624,14,30,15,False,7
Schoelcher - Raspail,48.836817,2.331279,8,50,42,True,3
Gare de Clichy-Levallois ,48.896798,2.298468,15,26,9,True,7
Daumesnil - Picpus,48.837469,2.401765,32,21,2,True,10
Place Charles Vallin,48.835524,2.302599,19,26,6,False,7
Le Corbusier - Jean Jaurès,48.837808,2.240838,1,46,45,True,1
Beaumarchais - Pas de la Mule,48.855581,2.368433,9,18,8,False,1
Place Centrale,48.787402,2.227883,4,22,18,True,4
Mairie du 9ème,48.873267,2.340753,0,24,23,True,0
Jean Moulin - Paul Doumer,48.862218,2.455334,16,20,4,True,15
Boutroux - Porte de Vitry,48.822632,2.377738,48,49,1,False,3
Jules Guesde - Alsace,48.890566,2.295078,0,25,25,False,0
Véron - Lepic,48.885261,2.33456,4,23,19,False,2
Commandant l'Herminier - Gallieni,48.847041,2.416045,1,17,15,False,1
Pont De Charenton,48.817968,2.419953,17,18,1,False,5
Pierre Brossolette - Adolphe Pinard,48.821772,2.313156,11,24,12,False,9
Station Paris Basketball - Stade Georges Carpentier,48.820482,2.366832,7,40,33,False,4
Gare de Nanterre Ville,48.89503,2.195793,24,43,18,True,4
Senard - Charles Blum,48.857316,2.221092,4,24,19,True,1
Charles de Gaulle - Orléans,48.880922,2.271582,0,26,26,True,0
Saint-Fargeau - Mortier,48.872667,2.407913,3,33,29,False,3
Gergovie - Vercingétorix,48.834534,2.313155,1,29,28,False,1
Choisy - Tolbiac,48.825912,2.360239,10,26,3,True,4
Mahatma Gandhi,48.876356,2.264205,9,26,16,False,6
Pyramide - Parc Floral,48.837442,2.440452,9,50,41,False,2
Jules Guesde - Laennec,48.87629,2.500694,8,19,10,True,6
Demi-Lune - Aristide Briand,48.876264,2.456282,8,20,11,False,6
Bois de Vincennes - Porte Jaune,48.838751,2.460549,1,35,34,False,1
Guy Môquet - Saint-Ouen,48.892778,2.327034,12,53,39,True,7
Pré Saint-Gervais - Lilas,48.877871,2.395907,4,28,24,False,4
Choron - Martyrs,48.877851,2.33967,0,17,16,True,0
Sambre et Meuse - Villette,48.874406,2.373807,3,25,22,True,3
Place du Président Salvador Allende,48.897307,2.400792,6,60,53,False,5
Square Edmond Pépin,48.883656,2.403353,0,30,30,True,0
Clapeyron - Moscou,48.880788,2.324815,5,15,10,False,2
Boussingault - Tolbiac,48.826035,2.342177,19,28,9,True,9
Paul Klee - Place Augusta Holmes,48.838946,2.370424,12,43,30,True,1
Jacquard - Ternaux ,48.86466,2.373162,1,39,37,True,0
Alexander Fleming - Belvédère,48.881791,2.40306,8,31,22,False,4
Honoré d'Estienne d'Ovres - Grilles,48.890564,2.406483,8,18,8,False,6
Eylau - Trocadéro,48.863354,2.286421,8,24,16,True,1
Santé - Arago,48.835077,2.341574,18,38,20,True,10
Athènes - Clichy,48.878114,2.32956,1,20,17,False,0
Paul Barruel - Vaugirard,48.840149,2.304433,15,39,24,True,6
Longchamp - Place d'Iéna,48.864917,2.292675,5,40,35,True,3
Parc Suzanne Lenglen,48.833251,2.27654,29,52,23,True,5
Louis Blanc - Jemmapes,48.879331,2.368449,4,31,25,False,0
Averroès - Aimé Césaire,48.914053,2.412637,9,19,9,False,2
Place de la Montagne du Goulet,48.844342,2.277384,12,21,9,False,1
Gare de Lyon - Van Gogh,48.84384,2.370445,38,51,13,True,2
Charles Lecocq - Lecourbe,48.84044,2.294867,21,30,9,False,5
Quai de Valmy,48.88127,2.368186,2,26,22,False,2
Place d'Italie - Vincent Auriol,48.831482,2.356755,17,40,22,True,6
Square de la rue Pixérécourt,48.873682,2.396028,0,15,15,False,0
Place du Front Populaire - George Sand,48.906807,2.364541,21,35,14,False,13
Bastille - Quai de la Rapée,48.846824,2.366936,13,27,14,True,0
Auguste Blanqui - Glacière,48.831152,2.343822,9,60,50,True,4
Mazagran - Pierre de Coubertin,48.816219,2.344227,11,15,3,False,7
Place Fernand Forest,48.849269,2.281863,31,33,2,True,6
Wurtz - Tolbiac,48.826312,2.344586,19,28,8,True,6
Hôtel de ville de Fontenay-sous-Bois,48.849497,2.475016,5,20,15,True,5
Pierre Demours - Laugier,48.881307,2.294846,9,37,25,True,3
Ivry - Simone Weil,48.823284,2.36591,9,18,9,False,7
Metz - Faubourg Saint-Denis,48.870893,2.353521,3,48,43,True,2
Botzaris - Crimée,48.879597,2.388791,2,21,19,False,2
Saint-Didier - Raymond Poincaré,48.866423,2.285863,4,17,13,False,4
Pelée - Alphonse Baudin,48.860026,2.371054,17,38,21,False,1
Traktir - Foch,48.872755,2.29155,9,22,12,True,0
Saint-Lazare - Place d'Estienne d'Orves,48.876834,2.332907,4,39,35,True,3
Place Jules Ferry,48.812108,2.325837,3,28,25,False,3
Censier - Santeuil,48.840659,2.353752,25,69,43,True,6
Cimetière d'Issy-les-Moulineaux,48.8177,2.260931,15,24,9,False,5
Mairie de Neuilly sur Seine,48.884947,2.267703,8,31,22,True,1
Pierre Levée - Fontaine Timbaud,48.866327,2.371116,1,23,22,True,0
Gare Montparnasse - Edgar Quinet,48.841488,2.323323,9,33,24,True,7
Joseph Sansboeuf - Saint Lazare,48.875316,2.322902,10,18,7,True,3
Cours de l'Ile Seguin - Parc Billancourt,48.827141,2.234235,19,29,10,False,6
Marcel Yol - Jullien,48.825376,2.287235,14,30,15,True,5
Marc Sangnier - Division Leclerc,48.785997,2.329956,21,24,3,False,4
Convention - Vaugirard,48.837677,2.295587,23,48,21,True,3
Résistance - Hoche,48.864273,2.435784,4,29,25,True,2
Paul Vaillant-Couturier - Gare RER,48.801082,2.402097,19,26,7,True,5
Raffet - Montmorency,48.852587,2.262925,6,42,34,False,3
Commerce - Letellier,48.847977,2.296625,10,44,34,True,4
Victor Cresson - Telles de la Poterie,48.822699,2.26865,26,31,2,False,5
Carnot - Général Lanrezac,48.875444,2.293824,0,30,30,True,0
Fessart - Château,48.84245,2.23989,16,20,2,False,2
Jean-Pierre Timbaud - Vaucouleurs,48.867937,2.377885,8,47,37,True,3
Bruneseau - Quai d'Ivry,48.824946,2.388566,40,48,3,False,2
Hôtel de Ville de Fontenay-aux-Roses,48.790845,2.287146,6,34,28,True,6
Bercy - Villot,48.841795,2.376785,28,34,13,True,14
Petites Ecuries - Faubourg Saint-Denis,48.872871,2.354215,2,28,26,True,1
Brancion - Lefebvre,48.829002,2.301431,5,11,5,False,2
Malesherbes - Place de la Madeleine,48.870406,2.323244,43,67,28,True,8
Temple - Charlot,48.865709,2.365274,21,45,23,False,2
Docteurs Déjérine - Pte de Montreuil,48.853984,2.412083,6,20,14,False,4
Cimetière de Boulogne-Billancourt,48.830764,2.252024,12,40,28,False,2
Pontoise - La Tournelle,48.850458,2.352454,11,23,11,True,1
Vanne - Général de Gaulle,48.815007,2.328318,0,25,25,True,0
Charles de Gaulle - Beauté,48.836496,2.479563,8,49,41,False,8
Malakoff - Place de la Porte Maillot,48.876733,2.283458,8,31,9,True,6
Ranelagh - Maison de la Radio,48.852936,2.28045,19,22,3,True,2
Gare SNCF Vanves-Malakoff,48.819002,2.29215,8,51,42,False,6
Vanne - Saussaies,48.786404,2.338848,14,20,6,False,11
André Maurois - Joseph et Marie Hackin,48.877898,2.278959,7,29,22,True,2
Pierre Lefaucheux - Traversière,48.824352,2.241791,14,35,20,False,7
Vitruve - Davout,48.860532,2.409159,4,23,19,False,2
Place de l'Insurrection d'Août 1944 ,48.814779,2.398075,26,30,4,False,11
Buzenval - Avron,48.851617,2.401514,13,50,36,True,6
Porte d'Italie,48.817162,2.360236,6,13,7,False,4
Westermeyer - Paul Vaillant-Couturier,48.819116,2.396664,46,25,0,True,12
Cauchy - Cévennes,48.843373,2.275133,17,51,33,False,3
Amaury Duval - Gabriel Péri,48.817188,2.323842,8,36,28,False,5
Caulaincourt - Place Constantin Pecqueur,48.889678,2.338179,5,44,38,True,4
Charles de Gaulle - Graviers,48.883152,2.264881,0,0,0,False,0
Paul Signac - Aristide Briand,48.869503,2.450226,11,35,24,False,7
Hôpital - Campo-Formio,48.835405,2.358218,7,16,9,True,4
Jean Calvin - Tournefort,48.841589,2.34849,4,28,24,False,3
Place de Barcelone - Mirabeau,48.847623,2.273566,40,55,13,True,5
Charles Gide - Fort de Bicêtre ,48.807194,2.353984,14,30,16,False,8
Jardin de l'Hospice Debrousse,48.861451,2.405686,3,23,20,False,3
Place de la Porte de Passy,48.857341,2.264417,6,36,29,True,4
Batignolles - Beudant,48.882164,2.319853,2,44,41,True,2
Daumesnil - Hébrard,48.8429,2.38474,13,40,27,False,1
Stade de France,48.919142,2.362066,10,44,33,True,7
Place de Lévis,48.883547,2.313193,2,48,45,True,1
Damrémont - Ordener,48.8934,2.336267,13,30,16,True,7
Arcole - Notre-Dame,48.853884,2.34938,8,31,21,True,1
La Motte-Picquet - Grenelle,48.848583,2.299348,14,34,20,True,1
Président Wilson - Baudin,48.898269,2.284934,6,28,21,False,0
Lobau - Hôtel de Ville,48.856212,2.353254,25,60,34,True,1
Colmar - Victor Hugo,48.886523,2.173961,3,32,28,True,2
Charonne - Pierre Bayle,48.858445,2.390398,8,23,15,False,5
Jourdan - Monticelli,48.822032,2.329095,15,30,15,False,8
Porte d'Asnières,48.890358,2.303629,9,36,25,True,1
Gaston Tessier - Rosa Parks RER,48.896376,2.374369,2,37,35,False,0
Camille Groult - Guy Môquet,48.787483,2.397673,20,22,2,False,3
Place de l'Europe - Quai de Bercy,48.825299,2.394568,11,17,5,False,4
Marché aux fleurs,48.855258,2.347375,4,23,18,True,1
Assas - Luxembourg,48.843734,2.333428,4,33,28,False,1
Pergolèse - Malakoff,48.875211,2.284278,8,38,30,False,1
Raspail - Albert Schweitzer,48.810315,2.343959,23,28,4,False,5
Jean Jaurès - Ouvrières Pivéreuses,48.910423,2.399577,14,20,5,False,8
Javel - André Citroën,48.846276,2.278637,40,45,4,True,7
Brillat-Savarin - Küss,48.822203,2.350422,10,21,11,False,4
Jacques Kellner - Saint-Ouen,48.895809,2.327897,24,45,17,True,8
Gare de Lyon - Chalon,48.845666,2.374145,41,45,3,True,3
Estienne d'Orves - Henri Ginoux,48.815388,2.320887,10,31,21,False,9
Benjamin Delessert - Jean Lolive,48.89392,2.417982,5,21,15,False,3
Paris - Laitières,48.846303,2.420755,5,22,16,True,3
Louis Pasteur - Albert Petit,48.796261,2.317289,13,31,18,False,11
Bobillot - Paulin Mery,48.8299,2.354336,4,23,16,True,2
Louis Rolland - République,48.817109,2.319311,2,26,24,True,2
Emeriau - Beaugrenelle,48.847912,2.284306,46,74,28,True,6
Faubourg Poissonnière - Dunkerque,48.880883,2.349934,3,30,27,True,2
Jean Moulin - Place Victor et Hélène Basch,48.827649,2.326197,7,41,32,True,7
Victor Hugo - La Pompe,48.867952,2.281463,5,41,25,True,3
Place Mongolfier,48.81516,2.459288,26,39,13,False,11
Gare RER - Malleret-Joinville,48.802936,2.42531,16,20,4,True,4
Place de la Gare,48.802534,2.427504,24,46,22,True,1
Paris - Désiré Préaux,48.857429,2.432305,3,49,46,False,3
Italie - Jardin Joan Miro,48.819909,2.359295,8,26,17,True,3
Monceau - Malesherbes ,48.879508,2.314546,3,38,35,True,2
Gare de la Garenne-Colombes,48.909752,2.239145,19,28,9,True,9
Mairie de quartier du Plateau - Mont-Valérien,48.879993,2.207244,0,20,19,False,0
Paul Vaillant-Couturier - Victor Hugo,48.898197,2.293848,20,36,14,True,4
La Jarry - Place Diderot,48.849727,2.452014,22,25,3,False,20
Paul Doumer - Stalingrad,48.806519,2.336888,14,24,9,False,9
Berthier - Place Stuart Merril,48.885928,2.293345,16,37,21,False,6
Quai de l'Oise - Aisne,48.890623,2.38337,6,30,21,False,1
Goutte d'or - Barbès,48.885124,2.349696,1,20,18,True,1
Charonne - Bureau,48.854176,2.396093,3,47,44,False,2
Square Louise Michel,48.884687,2.344139,2,36,34,True,1
Mairie de Clamart,48.800612,2.262151,9,33,21,False,8
Vaugirard - Pasteur,48.840409,2.315437,3,21,18,True,2
Place Jeanne d'Arc,48.829575,2.369126,24,36,12,True,16
Douai - Pierre Fontaine,48.882291,2.333241,1,25,22,True,0
Bessières - Porte de Clichy,48.896118,2.317909,15,33,17,False,5
Portugais - Kléber,48.871215,2.293735,2,26,24,False,2
Maréchal Joffre - Verdun,48.85385,2.470307,6,20,14,False,6
Place Edmond Michelet,48.860135,2.350064,2,23,22,True,0
Emile Zola - Fondary,48.847051,2.295341,28,42,14,True,4
Taitbout - La Fayette,48.87333,2.335263,2,53,51,True,2
Charles Tillon - Cimetière Communal,48.91844,2.393563,15,30,10,False,10
Saint-Mandé - Fabre d'Eglantine,48.845358,2.396502,8,34,24,False,3
Quai du Président Roosevelt - Pont Aval,48.834388,2.265682,5,30,23,False,1
Delizy - Louis Nadot,48.896213,2.409458,8,22,14,False,7
Halles - Bourdonnais,48.860449,2.346016,5,20,14,True,1
Île de la Jatte,48.894036,2.266634,12,23,11,False,6
Centre Georges Pompidou,48.861419,2.352581,4,26,22,True,3
Place Saint-Just,48.79038,2.389523,12,22,10,True,5
Rochechouart - Martyrs,48.882194,2.34055,2,20,18,True,2
Placette Grégoire Collas,48.94342,2.248748,18,25,5,False,2
Gérando - Rochechouart,48.882943,2.346485,0,21,21,False,0
Candale - Mehul,48.889394,2.41438,17,25,7,False,15
Porte des Lilas - Faidherbe,48.878619,2.412033,8,39,30,True,5
Suffren - Champ de Mars,48.854719,2.295217,3,23,20,True,2
Balzac - Olympes de Gouges,48.778503,2.400679,21,28,7,True,4
Square Bela Bartok,48.851202,2.284654,22,24,0,True,4
Fort d'Aubervilliers,48.915024,2.403528,16,22,5,True,11
Gare du Nord - Faubourg Saint-Denis,48.879613,2.35684,10,28,18,True,4
Saint-Germain - Ciseaux,48.853305,2.334465,1,18,17,True,0
Crozatier - Faubourg Saint-Antoine,48.85044,2.378901,23,42,17,True,2
Place Nelson Mandela,48.897874,2.218282,1,30,27,False,1
Hoche - Tilsitt,48.874836,2.297132,0,33,32,False,0
Londres - Place d'Estienne d'Orves,48.876694,2.330536,3,25,22,False,1
Place Ginette Hamelin,48.837853,2.382064,29,51,20,True,2
Pont de Suresnes,48.867415,2.225895,0,24,24,True,0
Esplanade du Foncet - Camille Desmoulins,48.82709,2.260686,18,28,10,True,3
Auguste Blanqui - Corvisart,48.830099,2.350273,3,26,23,True,1
Dunkerque - Trudaine,48.882152,2.346325,0,16,16,False,0
Joseph Dijon - Ornano,48.893745,2.347668,17,37,18,True,10
Gare du Stade,48.931268,2.260378,17,20,3,False,10
Square Denise Buisson,48.856232,2.426436,2,45,41,False,0
Glacière - Soeur Catherine Marie,48.829523,2.34357,16,40,24,False,8
Place Monge,48.842762,2.352408,10,21,11,True,3
Jourdan - Stade Charléty,48.819428,2.343335,16,60,44,True,13
Maurice d'Ocagne - General Maudhuy,48.824143,2.315879,4,30,26,False,1
Vivienne - Montmartre,48.871348,2.341459,0,39,39,True,0
Marché Saint-Quentin,48.877356,2.354511,5,15,9,False,3
Geoffroy - Marie,48.873782,2.344514,2,20,17,True,1
Toffier Decaux - Cartier Bresson,48.901651,2.401755,8,18,10,False,3
Place de Rungis,48.822456,2.347383,17,32,13,True,5
Vivaldi - Antoine-Julien Hénard,48.841924,2.389729,10,27,17,True,7
Godot de Mauroy - Madeleine,48.869789,2.326347,10,22,11,True,3
Madagascar - Meuniers,48.834605,2.397065,28,33,5,False,2
Abbé Groult - Convention,48.835969,2.302064,6,12,6,False,3
Saint-Denis - Rivoli,48.859059,2.347694,5,43,39,True,2
Buffon - Jardin des Plantes,48.842668,2.361859,29,30,0,True,4
Louis Xavier de Ricard - Ancienne Mairie,48.846299,2.47242,21,34,13,False,14
Lebrun - Colonel Fabien ,48.782669,2.381318,9,27,18,False,7
Saint-Antoine Sévigné,48.855022,2.361232,29,26,9,True,4
Place Joffre - Frédéric le Play,48.853754,2.304424,15,38,23,True,1
Square Etienne Jarousse,48.824852,2.292593,5,25,20,False,2
Rottembourg - Général Michel Bizot,48.837878,2.404405,37,43,5,True,5
Sebastopol - Rambuteau,48.861818,2.350138,2,16,12,False,0
Cloître Saint-Merri - Renard,48.858835,2.351828,16,32,15,False,2
Gare d'Argenteuil,48.947022,2.256898,7,40,32,True,0
Mairie du 8ème ,48.877932,2.318264,4,14,10,False,2
Jules Guesdes - Général de Gaulle,48.819306,2.278934,3,24,21,True,3
Bibliothèque Nationale - Richelieu,48.868289,2.338089,1,17,16,False,0
Marché Saint-Germain,48.851656,2.3355,4,21,17,True,2
Cherche-Midi - Hôpital Necker,48.844611,2.317914,10,38,28,True,2
Charenton - Prague,48.848175,2.376358,24,26,1,True,0
Place Aimé Césaire,48.783195,2.242913,4,27,23,False,3
Bourg l'Abbé - Saint-Martin,48.863933,2.352406,9,42,30,False,5
Hôpital Necker,48.846043,2.313245,14,40,25,False,6
Condorcet - Turgot,48.879852,2.345232,2,20,16,True,0
Dareau - Broussais,48.830776,2.33618,13,24,10,True,6
Jean Monnet - Iles,48.823394,2.249707,16,32,15,False,11
Parc Eli Lotar,48.91845,2.372709,8,20,12,True,3
Villiers - Batignolles,48.881253,2.316538,4,23,19,True,3
Stalingrad - Rigollots,48.849974,2.455576,13,51,37,False,8
Place Charles Michels,48.846401,2.28502,33,37,1,False,6
Croix Nivert - Square Saint-Lambert,48.843052,2.2952,16,47,31,True,8
Mairie du 14ème,48.832546,2.325492,9,32,23,True,4
Benoît Frachon - République,48.852307,2.415605,6,30,24,False,1
Dutot - Place Alleray,48.836826,2.30717,19,56,37,True,12
Leredde - Tolbiac,48.828876,2.374438,33,44,11,True,8
Jean Jaurès - Jules Jacquemin,48.884331,2.40829,9,24,14,False,7
Marne - Charles de Gaulle,48.815072,2.412167,18,27,9,False,4
Saint-Benoît - Jacob,48.855451,2.333472,12,23,11,True,2
Jardins d'Eole,48.88697,2.366849,10,20,9,True,6
Didot - Place de Moro-Giafferi,48.8337,2.3215,4,22,17,False,3
Davout - Volga,48.85292,2.410523,7,28,20,True,2
Porte de la Muette,48.863023,2.268719,7,36,29,True,7
Landy - Heurtault,48.915097,2.375951,9,30,21,False,7
Paradis - Hauteville,48.875,2.352276,6,31,25,True,2
Bruant - Vincent Auriol,48.834848,2.366826,19,25,3,True,2
Place des Droits de l'Enfant,48.82748,2.331922,2,24,22,True,2
Richard Lenoir - Place de la Bastille,48.853833,2.369722,12,53,41,True,5
Bréguet - Sabin,48.856932,2.370675,29,33,4,True,5
Toqueville - Cardinet,48.884902,2.310939,9,33,24,False,5
Richard Lenoir - Voltaire,48.861643,2.372749,8,25,14,True,5
Paul Bodin - Clichy,48.892396,2.317143,14,34,18,False,8
Raymond Poincaré - Place Victor Hugo,48.870306,2.285075,1,25,22,True,1
Hôtel de Ville de Sèvres,48.824364,2.213105,8,32,23,True,3
Place de la Madeleine - Royale,48.869228,2.324421,17,26,9,False,0
Porte de Bagnolet,48.864707,2.408345,3,33,29,False,0
Ruisseau - Ordener,48.892995,2.340145,11,35,21,True,5
Ecoles - Carmes,48.848904,2.347349,4,36,30,True,3
Plantes - Moulin Vert,48.830058,2.32323,4,45,41,True,1
Crevaux - Bugeaud,48.870809,2.281149,2,31,29,False,0
Artois - Berri,48.873935,2.306426,3,23,20,False,1
Jules Vallès - Charonne,48.854284,2.384767,2,23,21,True,1
Porte Molitor,48.845248,2.256902,20,60,38,True,4
Charles Frérot - Albert Guilpin,48.815584,2.350503,26,30,4,False,6
Cadix - Hameau,48.834011,2.289516,11,37,25,True,7
Reuilly - Place Felix Eboue,48.840303,2.39463,23,42,19,True,3
Gare RER les Grésillons,48.919899,2.314585,14,22,8,True,5
Alfred de Vigny - Place du Général Brocard,48.878361,2.305254,3,33,29,False,1
Cambon - Rivoli,48.866143,2.32518,19,40,21,True,5
Jean Mermoz - Champs-Elysées,48.86969,2.310732,4,33,29,True,3
Place de la Nation - Picpus,48.846822,2.400113,5,36,31,False,0
Poissonniers - Championnet,48.895433,2.353018,10,28,11,True,5
Flandrin - Longchamp,48.868778,2.274355,11,42,31,True,8
Grande Truanderie - Saint-Denis,48.86263,2.349808,1,33,31,True,0
Square Claude Bernard,48.89876,2.375326,11,30,16,False,5
Chevreuse - Montparnasse,48.841739,2.331552,3,15,11,False,3
Henri Ravera - Gabriel Péri,48.797223,2.302116,23,30,7,True,13
Perle - Vieille du Temple,48.860135,2.361121,22,36,14,True,6
Sèvres - Lecourbe,48.844768,2.311009,24,62,38,True,7
Epée de Bois - Mouffetard,48.841509,2.350067,4,63,59,True,2
Claude Vellefaux - Hôpital Saint-Louis,48.872859,2.370072,7,32,25,True,3
Maxime Gorki - Louis Aragon,48.789098,2.368388,14,20,5,True,7
Roger Salengro - Général de Gaulle,48.820029,2.484676,24,27,3,False,8
Murat - Porte de Saint-Cloud,48.837509,2.257765,11,38,25,True,7
Gare Montparnasse - Arrivée,48.843828,2.322581,7,43,36,True,6
Camille Risch - Paul Armangot,48.774703,2.373685,9,25,15,True,9
Reuilly - Daumesnil,48.839538,2.397252,8,36,27,True,5
Place de la Nation - Charonne,48.848365,2.399762,9,36,26,True,5
Charentonneau - Maisons Alfort,48.809933,2.443288,18,20,2,False,5
Place des Abbesses,48.884543,2.338687,1,12,10,True,0
Sorbier - Ménilmontant,48.868542,2.389772,0,24,24,True,0
Mairie du 16ème,48.863937,2.276595,2,35,32,True,1
Mairie d'Issy,48.823768,2.272311,31,41,10,True,7
Square Montholon,48.87662,2.345764,1,21,20,True,1
Louis Lumière.,48.862162,2.411126,12,22,9,False,2
Maine - Liancourt,48.835064,2.323731,1,27,26,False,1
Pyrénées - Avron,48.853247,2.405871,2,32,29,True,1
Cité Vaneau,48.854221,2.319615,17,26,9,False,8
Leibniz - Jean Dollfus,48.896328,2.33339,11,32,21,False,6
Herschel - Observatoire,48.843424,2.337665,3,37,34,False,2
Gambetta - Père Lachaise,48.864296,2.398229,3,29,26,True,3
Louis Blanc - La Chapelle,48.884009,2.359934,2,21,18,False,2
Gare de Reuilly - Picpus,48.842674,2.397294,14,28,14,False,5
Pergolèse - Marbeau,48.873569,2.281513,7,27,14,False,2
Porte de Clignancourt - Ney,48.899641,2.344321,19,40,20,True,4
Jourdan - Cité Universitaire,48.819897,2.339701,21,39,18,False,16
Phalsbourg - Villiers,48.882423,2.309045,2,20,18,False,2
Parme - Clichy,48.881266,2.328197,0,24,24,False,0
Beaubourg - Michel-le-Comte,48.862535,2.35431,7,17,9,True,2
Cordelières - Arago,48.835481,2.348572,24,46,21,True,7
Niger - Soult,48.843699,2.410361,10,24,14,False,2
Molitor - Michel-Ange,48.845182,2.262113,44,52,8,True,4
Place du Colonel Fabien,48.877568,2.369879,8,27,18,True,3
Gare Saint-Lazare - Stockholm,48.877127,2.322417,5,32,27,True,2
Turbigo - Française,48.863589,2.347779,4,16,12,True,1
Centquatre,48.889334,2.370785,16,42,25,True,8
Place de l'Europe - Alfortville,48.789137,2.42848,23,24,0,False,7
Emile Reynaud - Porte de la Villette ,48.90099,2.388702,17,22,5,False,7
Turbigo - Réaumur,48.865574,2.35642,8,31,21,True,3
Bargue -  Dutot,48.837884,2.308876,8,21,13,False,4
Chausson - Gabriel Péri,48.921891,2.295231,15,22,6,False,0
Beaumarchais - Saint-Gilles,48.858038,2.367935,25,51,23,True,4
Pyrénées - Plaine,48.850267,2.406282,6,12,6,False,4
Louis le Grand - Italiens,48.870509,2.334054,2,33,30,True,1
Porte de Pantin.,48.8892,2.395018,5,33,26,True,2
Lucien Lanternier - Le Luth,48.931594,2.288978,18,27,7,True,4
Archives - Rivoli,48.857347,2.353977,2,25,21,True,1
Frères Flavien - Porte des Lilas,48.878099,2.411046,0,23,23,False,0
Sainte-Elisabeth - Turbigo,48.866103,2.359649,21,33,11,False,3
Joffre - Aigle,48.904033,2.245096,16,20,0,False,6
Française - Etienne Marcel,48.864053,2.347587,6,37,30,True,0
Maurice Payret-Dortail,48.87812,2.223363,0,22,22,False,0
Nationale - Vincent Auriol,48.832527,2.362354,2,33,31,True,1
Etienne Marcel - Montorgueil,48.864506,2.346196,4,28,24,True,2
Square Emile - Chautemps,48.867434,2.353636,8,25,14,True,4
Cléry - Montmartre,48.867458,2.344521,2,44,42,True,1
Montmartre - Etienne Marcel,48.865022,2.345068,2,16,13,True,1
Solitaires - Place des Fêtes,48.876601,2.391769,2,29,27,True,2
Temple - Haudriettes,48.861637,2.356696,8,19,9,False,0
Saint-Denis - Réaumur,48.866112,2.350779,4,32,27,True,2
Gare d'Austerlitz - Pont Charles de Gaulle,48.84232,2.36703,23,55,30,True,2
Didot - Mariniers,48.826505,2.313136,4,35,31,False,4
Olivier de Serres - Leriche,48.834602,2.295748,9,25,16,True,9
Mairie du 3ème,48.864462,2.361763,14,32,17,True,5
Gardenat-Lapostol - Velettes,48.87387,2.224185,2,20,18,True,2
Blancs-Manteaux - Archives,48.859418,2.355947,17,29,10,True,4
Adolphe Pinard - Victor Hugo,48.823683,2.307784,7,52,42,False,4
Bézout - Général Leclerc,48.828848,2.328597,2,30,27,False,1
Hôtel de Ville d'Asnières sur Seine,48.909993,2.288238,26,30,3,True,5
Place de la République - Temple,48.867211,2.363546,5,18,12,True,2
Gare du Nord - La Chapelle,48.884178,2.356106,2,18,14,False,1
Quai des Célestins - Henri IV,48.851297,2.362454,10,14,6,True,3
Victoire - Laffitte,48.875144,2.338119,1,20,17,False,1
Eugène Varlin - Place de la Paix,48.792862,2.363093,10,23,13,False,8
Rivoli - Musée du Louvre,48.863646,2.334096,9,24,15,True,3
Alouettes - Maréchal de Lattre de Tassigny,48.85511,2.49307,13,22,8,True,9
Saint-Gilles - Turenne,48.858159,2.364715,11,18,6,True,2
Mairie du 4ème,48.85595,2.356382,12,44,31,True,1
Fille du Calvaire - Turenne,48.862105,2.36496,27,29,2,True,3
Tiron - Rivoli,48.855692,2.357906,16,28,12,True,2
Froidevaux - Boulard,48.835147,2.329441,2,35,32,False,2
Village Saint-Paul,48.85264,2.36073,20,28,7,False,3
Cesaria Evora - Rosa Parks,48.897177,2.374517,16,40,23,True,7
Château - République,48.905928,2.253629,8,20,10,True,4
Bas - Gabriel Péri,48.915856,2.29481,26,30,3,True,8
Poulet - Barbès,48.887148,2.349064,0,0,0,False,0
Choiseul - Quatre Septembre ,48.869936,2.335998,1,44,41,True,1
Mairie du Kremlin-Bicêtre,48.81192,2.357019,18,25,6,False,13
Porte de Saint Cloud - Parc des Princes,48.838663,2.252516,16,32,16,True,7
Square Pierre Lazareff,48.867142,2.348393,1,17,16,True,1
Jean-Jacques Rousseau - Deux Ecus,48.862978,2.341464,9,22,13,True,2
Ventadour - Opéra,48.866811,2.334388,4,27,23,True,1
Saint-Bon - Rivoli,48.858,2.350217,1,19,17,False,0
Grande Rue - Europe,48.82181,2.20588,3,25,22,False,0
Édouard Vaillant - Place Jean Jaurès,48.862655,2.208904,4,24,20,False,4
Aboukir - Alexandrie,48.868683,2.350204,2,21,18,False,0
Alger - Rivoli,48.864774,2.329449,14,21,6,True,6
Mairie de Rosny-sous-Bois,48.871257,2.486581,18,30,10,True,14
Saint-Honoré - 29 juillet,48.865571,2.330567,15,20,5,True,2
Gare des Vallées,48.913179,2.257726,18,20,1,True,10
Choisy - Malmaisons,48.82192,2.363347,3,25,22,False,3
Oratoire - Rivoli,48.861343,2.340005,8,18,10,True,1
Filles Saint-Thomas - Place de la Bourse,48.8689,2.339754,0,58,58,False,0
Pau Casals - Neuve Tolbiac,48.83116,2.37744,16,53,36,True,5
Chaussée d'Antin - Haussmann,48.87243,2.33359,0,24,24,False,0
Mairie du 2ème,48.867219,2.340463,1,28,26,False,1
Place du Lieutenant Henri Karcher,48.863491,2.340067,3,30,27,True,0
Arthur Ranc - Hôpital Bichat,48.897871,2.333522,7,26,19,False,3
Le Goff - Gay-Lussac,48.846102,2.341221,6,35,29,True,1
Saint-Placide - Cherche Midi,48.849054,2.325318,24,66,42,True,0
Bréa - Raspail,48.842738,2.329794,5,24,18,True,2
Amédée Huon - Fort d'Ivry,48.805131,2.38849,14,31,14,False,8
Saint-Honoré - Musée du Louvre,48.863443,2.334878,14,22,7,True,3
Jouffroy d'Abbans - Villiers,48.884216,2.305653,6,34,28,False,4
Archives - Pastourelle,48.862362,2.359504,19,28,6,False,3
Résistance - Parmentier,48.859651,2.436705,2,35,31,True,2
Place de la Division Leclerc,48.793825,2.273114,4,35,31,False,4
Cardinal Lavigerie,48.832934,2.402637,41,46,3,False,6
Coquillière - Louvre,48.863796,2.342574,2,21,19,True,1
Lampes,48.811525,2.401793,38,43,5,True,9
Place des Victoires,48.866035,2.342033,1,24,23,False,1
Danielle Casanova - Opéra,48.867643,2.333389,1,20,19,True,0
Victor Massé - Jean-Baptiste Pigalle,48.881104,2.336696,0,18,18,False,0
Belles Feuilles - Place de Mexico,48.865805,2.282921,3,23,18,True,3
Les Halles - Saint-Eustache,48.863627,2.342624,2,32,30,True,1
Jules Guesdes - Carnot,48.938282,2.350899,9,16,7,False,6
Simon Bolivar - Henri Turot,48.876887,2.374454,0,0,0,False,0
Silly - Louis Blériot,48.83219,2.23402,5,23,18,False,2
Les Blagis,48.785205,2.302526,3,27,24,False,2
Saint-Mande - Picpus,48.845128,2.401569,28,35,7,True,13
Sorbier - Gasnier-Guy,48.865218,2.39366,1,34,33,True,1
Paganini - Davout,48.85135,2.412021,7,22,14,True,4
Saint-Fiacre - Poissonière,48.870829,2.345921,2,35,31,True,2
Bagnolet - Place Saint-Blaise,48.85973,2.40334,13,28,15,True,2
Gare RER - Maurice Grandcoing,48.813881,2.392429,36,37,0,True,4
Jouffroy d'Abbans - Malesherbes,48.885013,2.307072,7,27,20,True,4
Gobelins - Port-Royal,48.837136,2.35152,33,40,3,True,3
Place du Maréchal de Lattre de Tassigny,48.821708,2.285343,16,27,11,False,12
Belleville -  Pré Saint-Gervais,48.875566,2.393046,1,21,19,False,1
Manin - Secrétan,48.879166,2.378796,0,20,19,False,0
Château de Vincennes,48.844232,2.43921,17,52,35,True,9
Paix - Verdun,48.900504,2.261173,19,35,15,True,10
Place Denfert-Rochereau,48.843253,2.245988,17,20,3,True,5
Saint-Augustin,48.876201,2.319786,2,31,28,False,0
Bobillot - Tolbiac,48.825596,2.350204,5,33,27,True,3
Lecourbe - Convention,48.839233,2.29152,24,46,21,True,9
Dôme - République,48.832681,2.250257,16,25,9,False,2
Chevaleret - Louise Weiss,48.832587,2.371211,32,35,2,True,5
Roquette - Auguste Laurent,48.858002,2.381798,12,16,4,True,3
Mathis - Flandre,48.890643,2.376255,18,55,35,True,7
Pyrénées - Cours de Vincennes,48.847797,2.406172,5,21,15,True,2
Suffren - La Motte-Piquet,48.850881,2.30122,8,23,15,True,1
Général Leclerc - Bièvre,48.782414,2.31667,16,25,9,True,0
Place du Docteur Yersin,48.820105,2.372558,7,50,43,False,7
Taitbout - Châteaudun,48.876384,2.335357,1,39,37,True,1
Francoeur - Caulaincourt,48.889994,2.34253,4,34,29,False,3
Léon Frot - Charonne,48.854964,2.387217,13,19,5,True,5
Duméril - Jeanne d'Arc,48.838152,2.357108,21,40,19,True,4
Dom-Pérignon - Gravelle,48.825482,2.40988,9,50,40,True,1
Félix Faure - Convention,48.841249,2.288387,17,44,27,True,1
Franquet - Labrouste,48.832877,2.306763,21,37,16,False,13
Maxime Gorki - Paul Vaillant-Couturier,48.796735,2.368334,4,20,15,True,3
Cambronne - Mademoiselle,48.843277,2.302308,38,67,27,True,11
Balzac - Champs Elysées,48.8727,2.300195,6,30,23,True,1
Euryale Dehaynin - Loire,48.886249,2.377459,10,30,16,True,2
Riquet - Marx Dormoy,48.89021,2.360176,0,29,29,True,0
Pierre Charron - Champs-Elysées,48.870103,2.30435,2,32,28,True,1
Hauteville - Bonne Nouvelle,48.870774,2.34965,1,17,16,True,1
Place de la vache noire,48.810405,2.32706,3,25,22,True,1
Place Tristan Bernard,48.879196,2.29154,4,28,23,True,2
Place Charles Digeon,48.843542,2.418427,9,32,22,True,3
Gouthière - Poterne des Peupliers,48.820507,2.351342,18,33,15,False,10
Hector Malot - Daumesnil,48.846936,2.377088,37,54,16,False,8
Place de la Nation - Taillebourg,48.848841,2.397304,7,47,37,True,4
Gergovie - Alésia,48.830887,2.318882,12,36,24,True,10
Jean de la Fontaine - Boulainvilliers,48.852648,2.275866,17,68,50,True,5
Gambetta - Tourelles,48.875338,2.405992,0,20,0,False,0
Place Eustache Deschamps,48.793855,2.336637,16,20,4,True,6
Square des Amandiers,48.866156,2.389132,1,12,11,False,0
LCL Campus - Place Oscar Niemeyer,48.805342,2.363984,11,37,25,True,7
Général De Gaulle - Vivien,48.836074,2.418917,6,22,15,True,6
Bercy - Traversiére,48.846193,2.37038,24,30,4,True,7
Buzenval - Vignoles,48.853858,2.400004,7,17,10,False,5
Edouard Pailleron - Bouret,48.880598,2.376949,15,27,11,False,9
Pierre Joseph Desault,48.821102,2.378775,15,19,4,False,0
Guillaume Tell - Parc Henri Barbusse,48.889589,2.419886,9,20,10,False,7
Olympiades,48.826765,2.365086,7,36,29,True,2
Pyrénées - Charles Renouvier,48.860959,2.400422,9,29,20,True,7
Edith Cavell - Volta,48.901617,2.269354,10,33,22,False,3
Hôtel de Ville de Vincennes,48.848276,2.439896,11,27,15,True,1
Maine - Jean Zay,48.837925,2.322543,11,50,38,True,6
Tombe Issoire - René Coty,48.830513,2.334361,4,36,32,True,3
Siam - La Pompe,48.86172,2.275347,3,16,13,False,3
Marcadet - Ramey,48.890875,2.344902,13,21,8,True,4
George Sand - Jean de La Fontaine,48.849869,2.268257,22,29,6,False,1
Porte de la Plaine,48.828052,2.292428,2,35,33,False,2
Alexandre Dumas - Place de la Réunion,48.855337,2.39977,12,45,33,False,10
Rome - Provence,48.87423,2.32557,7,30,21,True,0
Enfants du Paradis - Peupliers,48.833123,2.257146,13,40,27,False,6
Marcel Pourtout - Édouard Manet ,48.875556,2.165597,12,24,12,False,2
Sahel - Général Michel Bizot,48.840873,2.404444,27,33,5,True,9
Saint-Séverin - Saint-Michel,48.852731,2.344093,3,30,27,True,2
Duhamel - André Gide,48.836566,2.312707,4,20,15,False,2
Ancienne Mairie - André Morizet,48.838311,2.234077,12,25,13,False,2
Marceau - Président Wilson,48.865236,2.300251,3,32,27,True,2
Bourdonnais - Tour Eiffel,48.860898,2.2956,42,60,17,True,7
Lavoisier - Missak Manouchian,48.862865,2.495676,12,18,6,False,7
Guy Môquet - Compoint,48.892136,2.323219,9,36,27,True,4
René Coty - Place Denfert-Rochereau,48.833056,2.332941,13,36,22,True,12
Place Aristide Briand,48.821892,2.413004,12,35,23,True,8
Charonne - Alexandre Dumas,48.856077,2.394869,9,35,26,True,5
Montreuil - République,48.850263,2.43452,21,25,4,True,8
Mairie de Bagnolet,48.868421,2.417959,10,28,16,True,10
Constantine - Université,48.86068,2.314848,1,65,62,True,1
Legendre - Nollet,48.887742,2.320293,7,30,23,True,4
Assas - Rennes,48.849208,2.328515,5,32,25,False,1
Fief - République,48.831709,2.255772,25,25,0,False,5
Ménilmontant - Oberkampf,48.866618,2.383013,4,40,36,True,2
Reynaldo Hahn - Lagny,48.849266,2.41233,7,19,12,False,2
Pasteur - Cotentin,48.838928,2.316356,13,33,20,False,4
M.- A. Lagroua Weill-Hallé -  F. Dolto,48.828595,2.380221,30,60,27,True,1
Lorraine - Jean Jaurès,48.886386,2.382577,2,19,15,True,1
Bois de Vincennes - Polygone,48.835445,2.431421,6,51,45,True,1
Mairie du 20ème,48.865302,2.399067,18,27,8,True,5
Colonel Pierre Avia,48.829684,2.275343,18,29,11,False,0
Championnet.,48.895364,2.349817,20,22,2,False,15
Arthur Auger - Jean Jaurès,48.813736,2.306928,6,26,20,False,3
Dantzig - Lefebvre,48.830139,2.295934,12,33,21,False,10
Verdier - République,48.815404,2.317394,3,29,25,False,2
Galilée - Vernet,48.871716,2.298544,6,17,11,False,1
Marché d'Auteuil,48.848428,2.265254,20,32,9,True,1
Victor Hugo - Bineau,48.887582,2.278389,14,25,9,True,7
Volontaires - Vaugirard,48.841321,2.308089,6,34,27,True,4
Passy - Place du Costa Rica,48.858489,2.283966,2,33,31,True,2
Guillaume Bertrand - République,48.863825,2.380906,4,38,30,False,2
Regard - Rennes,48.847385,2.326856,9,46,37,False,1
Louis Blanc - Aqueduc,48.88203,2.363562,5,37,29,True,3
Philippe-Auguste,48.851853,2.393295,9,48,39,False,5
Porte de Charenton,48.83124,2.398911,30,67,35,True,15
Hôtel de Ville de Rueil-Malmaison,48.878194,2.181724,8,20,12,True,3
Arsonval - Falguière,48.8404,2.313118,7,25,18,False,3
Etienne Dolet - Place Maurice Chevalier,48.867983,2.385141,3,33,30,True,0
Carpeaux - Place Jacques Froment,48.890654,2.330943,1,19,18,True,1
Place d'Italie - Soeur Rosalie,48.831909,2.354694,3,52,49,True,2
Jean Bologne - Passy,48.857567,2.280027,2,19,17,False,2
Saint-Marcel - Hôpital,48.839504,2.360989,18,21,2,True,2
Geoffroy-Saint-Hilaire - Saint-Marcel,48.839078,2.356877,13,17,2,False,4
Pyrénées - Dagorno,48.855426,2.405164,9,20,10,False,4
Place Saint-André des Arts,48.852886,2.342654,7,37,29,True,1
Saint-Maur - République,48.864186,2.378317,1,38,37,True,1
Montparnasse -  Square Ozanam,48.843311,2.326524,3,49,45,True,3
Bobillot - Moulin des Prés,48.828657,2.353021,7,28,21,True,2
Rond-Point Rhin et Danube,48.840453,2.228023,27,53,25,True,9
Flandre - Ourcq,48.892602,2.379092,8,30,20,True,1
Point du Jour - Jean Jaurès,48.828753,2.245911,18,26,7,True,3
Commandant Charcot - Bretteville,48.875306,2.255846,8,36,28,True,1
Colisée - Champs-Elysées,48.870475,2.307619,0,24,15,True,0
Crimée - Ourcq,48.894104,2.372946,13,56,41,True,7
Metz - Marne,48.891163,2.38657,2,33,30,True,1
Saint-Mandé - Docteur Arnold Netter,48.844626,2.404946,19,39,18,True,6
Bertrand Sincholle - Henri Barbusse,48.89926,2.304229,18,23,3,True,8
Lacépède - Linné,48.843704,2.354651,8,54,46,True,5
Jacquier - Didot,48.829533,2.318179,7,30,23,True,6
Général Michel Bizot - Claude Decaen,48.834813,2.400928,34,38,2,True,10
Ivry - Baudricourt,48.824696,2.363106,8,20,12,False,4
Guynemer - Jardin du Luxembourg,48.846613,2.332548,4,36,32,True,0
Square Gilbert Thomain,48.907174,2.26954,15,20,2,False,11
Magenta - Chabrol,48.876495,2.356099,8,24,10,True,5
Jessaint - Marx Dormoy,48.884845,2.35893,13,30,15,False,7
République - Auguste Perret,48.786953,2.351859,9,30,20,False,8
Danielle Casanova - Ledru-Rollin,48.815783,2.38326,22,28,6,False,2
Cossonnerie - Sébastopol,48.861327,2.34942,4,24,19,False,1
Lucien Bossoutrot - Général Martial Vallin,48.836956,2.274107,9,39,30,False,2
Quai de Béthune - Pont de la Tournelle,48.850974,2.356307,14,25,7,True,5
Ecole Vétérinaire,48.814889,2.422436,23,36,12,True,4
Belfort - Victor Hugo,48.901849,2.317272,19,24,4,False,10
Stalingrad - Henri Luisette,48.783631,2.366936,11,26,14,False,7
Youri Gagarine - Commune de Paris,48.782427,2.393973,25,33,8,False,13
Strasbourg - Saint-Denis,48.869602,2.354291,3,16,12,False,2
Arche - Léonard de Vinci,48.89791,2.238372,5,28,22,True,3
Parvis Robert Schuman - Roger Salengro,48.812657,2.192175,5,24,19,False,4
Champeaux - Gallieni,48.864459,2.416178,13,50,34,True,11
Wilson - Landy,48.915167,2.357633,15,40,24,False,12
Chancé Milly - Cimetière Communal Sud,48.896872,2.303922,15,32,17,False,8
Gustave Eiffel - Parc des Impressionnistes,48.903906,2.294691,10,30,18,True,9
Lally-Tollendal - Armand Carrel,48.882701,2.374718,10,28,18,True,4
Réaumur - Montmartre,48.868231,2.343826,0,19,18,False,0
Barbès - Monique Maunoury,48.815527,2.368717,15,40,25,False,3
République - Louis Loucheur,48.823549,2.510187,24,37,13,True,15
Convention - Lourmel,48.842055,2.285991,31,36,4,True,6
Gare de Nogent-le-Perreux,48.838426,2.493693,31,32,1,True,8
Nanterre - Université,48.901365,2.212693,4,20,15,True,3
Square Victor Basch,48.914305,2.228916,0,20,20,True,0
Parc Pierre Lagravère,48.926505,2.23907,21,30,8,False,8
Pierre Larousse - Raymond Losserand,48.830596,2.311918,2,30,28,True,2
Gare RER - Canadiens,48.819953,2.464177,3,45,40,True,2
Quai de la Gare - Pont de Bercy,48.837308,2.374086,22,30,8,False,2
Cité de la Musique,48.888797,2.392581,1,60,56,True,1
Hôpital Robert Debré,48.880052,2.400865,1,33,30,False,1
Basilique,48.936269,2.358867,17,22,5,True,7
Quai Jules Guesde - Saint-Simon,48.803915,2.408966,17,30,13,False,4
Karl Marx,48.784528,2.364667,2,16,14,True,2
Sèvres - Général Leclerc,48.830122,2.231426,16,30,14,False,2
Parc Départemental des Hautes-Bruyères,48.793458,2.350901,0,30,30,True,0
Cours de Vincennes - Davout,48.847238,2.410704,11,48,36,True,3
Borrégo - Gambetta,48.873305,2.401415,7,25,18,True,7
Petit - Georges Thill,48.886031,2.389575,8,23,14,False,7
Gare de Bellevue,48.81924,2.229531,9,20,11,False,6
Kléber - National,48.906334,2.239391,8,20,11,True,3
Saint-Denis - Université,48.945634,2.36383,9,24,14,True,7
Halle Freyssinet - Parvis Alan Turing,48.832847,2.371142,8,23,14,False,2
Cours de Vincennes - Soult,48.846919,2.410522,7,45,38,True,2
Val-Fleury,48.807671,2.240722,9,23,14,True,7
Mûriers - Père Lachaise,48.864131,2.39165,9,20,11,False,8
Clignancourt - Sofia,48.88512,2.347195,2,19,17,False,0
BNF - Bibliothèque Nationale de France,48.835027,2.376016,48,42,6,True,7
Pereire - Saussure,48.888229,2.31013,8,32,23,False,3
Waldeck Rochet - Germaine Tillon,48.91106,2.36763,17,31,13,False,6
Saint-Marc - Feydeau,48.870311,2.341979,0,37,37,True,0
Place Amédée Gordini - Lefebvre,48.830617,2.292063,5,38,32,False,5
Dominique Pado - Croix Nivert,48.836488,2.289725,21,22,1,False,9
Guy Môquet - Parvis Georges Marchais,48.795188,2.359435,8,30,21,False,8
Redoute - Les Courtilles,48.929867,2.28367,23,40,15,False,9
Argenteuil - Voltaire,48.918649,2.281411,13,16,2,False,8
Hôtel de Ville de Chaville,48.808871,2.188134,3,20,17,False,3
Pesaro - Préfecture,48.89577,2.223908,3,22,18,True,2
Erasme - Ulm,48.842644,2.344595,8,24,16,False,5
Verdier - Jean Jaurès,48.81614,2.312356,15,33,18,True,12
Charles de Gaulle - Sablonville,48.879919,2.276377,4,26,21,False,3
Pasteur - Gambetta,48.845728,2.423601,4,19,15,True,3
Verdun - Carnot,48.808439,2.373795,21,28,7,False,18
Pierre et Marie Curie - Julien Grimau,48.870714,2.424097,4,18,13,False,3
Place de la Porte de Paris,48.930094,2.356404,9,40,31,True,5
Sèvres-Gallieni,48.837809,2.228152,16,27,11,False,2
Madeleine Michelis - Roule,48.882604,2.277363,16,25,8,True,2
Victor Hugo - Gare,48.923134,2.260097,15,22,4,True,1
Marx Dormoy - Château Sainte-Barbe,48.791782,2.297857,12,22,10,False,9
Gare de Robinson,48.779926,2.281829,2,30,28,True,2
Saint-Cloud - Hippodrome,48.857721,2.254911,5,30,25,False,2
Gare de Chaville Rive Gauche,48.80516,2.188277,3,18,15,True,3
Voltaire - Anatole France,48.891999,2.284263,12,27,14,True,4
André Theuriet - Blagis,48.779773,2.313053,6,30,23,False,2
Adolphe Lalyre - Armand Silvestre,48.904063,2.273416,10,40,30,False,9
Jean-Baptiste Charcot - Sainte-Geneviève,48.903109,2.278893,17,21,4,True,4
Mairie de La Garenne Colombes,48.906638,2.246796,5,22,16,False,3
Pitié-Salpêtrière,48.837488,2.365214,6,51,45,False,1
Place du 14 Juillet,48.819267,2.3012,11,22,10,True,3
Henri Barbusse - Stalingrad,48.814184,2.287286,0,16,16,True,0
Saint Lambert - Blomet,48.836591,2.293056,25,27,1,False,4
Pierre Brossolette - 12 Février 1934,48.817696,2.307612,12,25,13,False,8
Mairie de Romainville,48.885109,2.435679,13,17,4,True,11
Château - Place de Catalogne,48.836806,2.318529,6,33,24,True,4
Italie - Tolbiac,48.825572,2.357617,3,21,17,False,2
Stalingrad - Germaine Tailleferre,48.802572,2.378669,20,28,8,True,8
Boulard - Daguerre,48.834465,2.329339,4,45,41,True,2
Place Paul Delouvrier,48.891976,2.385129,11,26,14,False,5
Roger Salengro - Fontainebleau,48.814549,2.361166,22,25,3,True,18
Mazagran - Bonne Nouvelle,48.870047,2.351125,4,25,18,True,4
Place du Palais Royal,48.862383,2.338482,16,67,49,True,6
Stade Pershing,48.829108,2.458354,2,26,24,False,2
Madeleine Vionnet,48.902519,2.37409,7,34,27,True,6
Hippodrome Paris-Vincennes,48.820484,2.446271,3,42,38,False,1
Ranelagh - Mozart,48.855444,2.270442,7,23,15,True,4
Suresnes - Muette à Neuilly,48.86857,2.266001,3,30,26,False,1
Place de la Bastille - Bourdon,48.852364,2.368109,6,35,28,True,3
Mstislav Rostropovitch - Berthier,48.892121,2.309234,3,18,15,False,2
Georges V - François 1er,48.87034,2.30082,1,22,20,True,0
George V - Christophe Colomb,48.87046,2.30104,3,24,21,False,3
Rouget de Lisle,48.764615,2.407119,31,35,2,True,4
Eugène Reisz - Davout,48.856319,2.410397,5,20,14,False,4
Tristan Tzara -  Tchaïkovski,48.894902,2.364849,6,33,25,False,4
Chabanais - Petits Champs,48.867037,2.336716,6,30,24,False,2
Neuilly - Petit,48.898965,2.296279,12,16,4,True,2
Parc Floral du Bel Air,48.839286,2.43856,22,25,3,False,8
Place Jacques et Thérèse Tréfouël,48.842726,2.312566,14,43,29,True,4
Diane Arbus,48.898801,2.352402,17,38,19,False,11
Verdun - Pierre et Marie Curie,48.812822,2.370711,11,26,15,True,9
Jean Jaurès - Paul Lafargue,48.884933,2.248449,12,28,16,False,7
Saint-Michel - Luxembourg,48.845015,2.339494,4,29,24,False,3
Hippodrome de Longchamp,48.864132,2.239905,13,30,16,False,3
Berthier - Porte de Clichy,48.894223,2.312587,16,24,7,False,1
Capitaine Glarner - Gabriel Péri,48.90245,2.330481,16,27,9,True,7
Garibaldi - Gabriel Péri,48.905742,2.331604,22,30,8,True,3
Sèvres - Maréchal Juin,48.83243,2.229281,13,18,5,False,3
Blanqui - Docteur Bauer,48.907735,2.340719,17,28,8,False,1
Victor Hugo - Paul Eluard,48.819603,2.411432,14,32,18,False,2
Bons Raisins - Voltaire,48.872825,2.194716,5,24,19,True,4
Hôtel de Ville de Saint-Ouen,48.91138,2.334008,42,48,4,True,12
Clef des Champs - Albert Dhalenne,48.914938,2.330665,24,28,3,True,8
Nungesser - Santé,48.852335,2.448967,6,22,16,True,5
Cartier Bresson - Denis Papin,48.902616,2.397814,28,32,2,False,16
Champs de Manoeuvre - Cartoucherie,48.835261,2.447974,8,20,10,False,7
Adrien Lesesne - Docteur Bauer,48.902639,2.348248,9,30,18,False,7
Henri Barbusse - Bourguignons,48.913017,2.273421,31,34,1,True,14
Marceau Delorme - Pierre Brossolette,48.912061,2.295897,28,28,0,False,7
Porte de Clichy - Place des Nations Unies,48.896737,2.310543,26,40,14,True,11
Jean Jaurès - Place du Dr Roux,48.927567,2.294734,31,35,4,True,1
Sèvres Rive Gauche,48.821443,2.215079,1,33,32,True,1
Place du 17 Octobre,48.919627,2.297829,17,20,0,False,4
Gardenat Lapostol - Franklin Roosevelt,48.871839,2.222505,2,24,22,True,1
Séminaire de Conflans - Liberté,48.823194,2.404179,13,26,13,True,13
Bichat - Grange aux Belles,48.873688,2.365015,6,30,23,True,4
Henri Barbusse - Gabriel Péri,48.801774,2.287417,4,27,20,True,4
Béranger - Félix Faure,48.804048,2.284826,5,28,21,False,4
Avenir,48.810344,2.300378,11,45,34,True,7
Guy Môquet - Jean Moulin,48.940932,2.363949,7,30,20,True,2
Parc des Pierrettes,48.797306,2.290997,3,23,20,False,2
Hélène et François Missoffe - Emile Borel,48.899907,2.321544,1,32,31,False,0
Châteaudun - Place de la Liberté,48.909708,2.245449,10,26,16,True,7
Edouard Poisson - Victor Hugo,48.911186,2.379865,11,30,18,True,5
Place de la Paix - Abbé Saint-Pierre,48.864627,2.204757,4,24,20,True,3
Simone Signoret - Paris,48.903601,2.465407,16,28,12,False,1
Oberkampf - République,48.865316,2.376115,2,24,22,True,1
Square Alban Satragne,48.875388,2.355957,5,30,22,True,1
Division Leclerc - Kléber,48.798666,2.283375,7,25,17,True,7
Marcel Monge - Marcel Dassault,48.860964,2.224673,11,46,33,True,5
Dora Maar - Nadia Guendouz,48.905452,2.322041,22,30,8,True,5
Raspail Barbès,48.852994,2.424739,10,28,17,True,7
Fontaine du Tertre - Calvaire,48.870254,2.218778,1,24,23,True,1
Place Jean Mermoz,48.922094,2.271835,21,30,8,True,9
Vladimir Ilitch Lénine - Andrée Chedid,48.81324,2.331972,14,31,17,True,7
Quatre Vents - Carrefour de l'Odéon,48.851751,2.338162,2,37,35,True,0
Paul Valery - Victor Hugo,48.871374,2.288713,3,35,31,False,1
Faubourg St-Antoine - Place de la Nation,48.848773,2.393606,5,16,11,True,4
Martyrs de Châteaubriant - Jean Grandel,48.951432,2.211214,5,38,33,False,3
Bourdon - Pont Morland,48.84781,2.365936,15,52,37,False,2
Charles de Gaulle - Rue de l'Alma,48.896621,2.252313,11,28,17,False,7
Gare RER - Général de Gaulle,48.933548,2.306473,16,41,24,True,13
Résistance - Romain Rolland,48.950873,2.231019,13,28,14,True,8
Quai de Sèvres - Manufacture Nationale,48.828688,2.22499,20,28,7,True,3
Maréchal Leclerc de Hauteclocque - Marché Buzenval,48.858446,2.192077,9,30,21,False,8
Place de l'Hôtel de Ville,48.857331,2.351458,3,14,9,True,1
Convention - Campus de Bobigny,48.91492,2.417224,17,32,13,True,9
Pablo Picasso - Maurice Thorez,48.906888,2.448933,0,0,0,True,0
Moscou - Edouard Vaillant,48.907558,2.468984,5,30,25,False,4
Bateliers - Quai de Seine,48.915818,2.323953,19,26,5,False,5
Georges Pompidou - Verdun,48.875481,2.232443,18,26,8,False,9
Place Charles de Gaulle,48.826073,2.189449,9,24,15,True,8
Stalingrad - Général de Gaulle,48.823451,2.496506,23,26,3,False,4
Perrault - Place du Louvre,48.860274,2.341247,7,28,20,True,1
Place Nationale - Château-des-Rentiers,48.829268,2.365212,7,18,11,False,3
Payenne - Square George Caïn,48.857833,2.362264,20,24,2,False,6
Dupont de l'Eure - Gambetta,48.867938,2.400365,12,31,18,True,11
Lamarck - Saint-Ouen,48.891335,2.327245,6,40,34,True,1
Bracion - Périphérique,48.826104,2.300455,13,30,17,True,2
Porte de Versailles,48.832324,2.287562,21,28,6,True,11
Gare de Courbevoie,48.899387,2.250651,7,35,28,True,6
Marceau - Chaillot,48.868834,2.298603,11,21,10,False,2
Gare - Aristide Briand,48.821411,2.255595,19,29,10,True,5
Hispano Suiza - Parc des Bruyères,48.915885,2.268231,26,30,4,False,6
Docteur Calmette - Martre,48.898969,2.308651,24,30,4,True,14
Verger - Colonel Guichard,48.816377,2.267038,8,29,21,True,6
Gabriel Péri - Place de la Libération,48.819828,2.311736,3,18,15,True,2
Arsène Houssaye - Friedland,48.874511,2.299472,2,29,27,False,2
Ménil - Argenteuil,48.925902,2.27415,9,20,10,False,1
Jardin Modèle - Pierre Boudou,48.914867,2.305701,16,18,1,False,8
La Motte-Picquet - La Tour Maubourg,48.856927,2.309622,21,40,18,True,3
Pavé des Gardes - Charles Vaillant,48.811686,2.211182,2,20,18,True,2
Verdun - Henri Barbusse,48.802056,2.315997,3,24,21,True,2
Macdonald - Césaria Evora,48.89883,2.37933,11,67,55,False,4
Mariotte - Batignolles,48.884572,2.32147,1,20,19,True,1
Decrès - Alésia,48.8322,2.313907,8,30,20,True,5
Moulin de Pierre - Abbé Grégoire,48.822036,2.275464,10,20,10,False,9
Saint-Germain - Verdun,48.882877,2.433187,13,30,16,True,13
Marseillaise - Grenade,48.889371,2.39794,3,45,40,False,3
Epi d'Or - Chevilly,48.78111,2.354905,8,20,12,False,7
Saint Pères - Saint Germain,48.85373,2.330018,9,22,12,True,2
Charles de Gaulle - Louis Philippe,48.881742,2.271005,5,28,22,True,2
Mairie de Sceaux,48.778917,2.288736,0,33,33,False,0
Charlot - Stade Gabriel Voisin,48.827228,2.268123,23,31,6,True,0
Quai du docteur Dervaux,48.910482,2.297998,22,26,4,True,6
Stalingrad - Barbara,48.809224,2.31759,0,20,19,True,0
Chateau,48.774661,2.313588,18,22,4,True,7
Cadet - La Fayette,48.875602,2.34357,0,0,0,True,0
Chastenet de Géry - Marcel Paul,48.800123,2.356736,5,25,19,False,5
Port Royal - Hôpital Cochin,48.838608,2.340699,5,23,16,True,2
Jean Bouin - Gouverneur Général Eboué,48.824793,2.26519,27,31,4,True,4
Londres - Europe,48.878619,2.324816,5,27,21,False,0
Dugommier,48.838811,2.389658,34,53,15,True,14
Batignolles - Abel Truchet,48.883104,2.323835,2,28,26,True,2
Roland Garros - Jean Bouin,48.809461,2.28532,11,28,16,False,10
Jean Rostand - Paul Vaillant Couturier,48.908168,2.45306,11,40,29,True,5
Marne - Germain Dardan,48.812175,2.303502,4,22,17,True,3
Gare RER,48.89628,2.458157,27,30,3,True,12
Place des Arts - Jean Mermoz,48.880391,2.183216,2,20,17,True,0
Place Henri Dunant - Gare RER,48.788093,2.290923,6,31,25,True,3
Théâtre de La Garenne,48.905658,2.234595,6,20,14,False,4
Chemin de Bretagne,48.824753,2.258839,17,29,12,False,4
Clichy - Douai,48.883688,2.328064,2,32,30,True,2
Jean Jaurès - Place de la Libération,48.906178,2.439146,15,30,11,False,8
Cimetière de Montrouge,48.821467,2.321579,4,58,54,False,1
Place Nelson Mandela,48.862453,2.196167,2,22,20,True,2
Henri Barbusse - Marcel Cachin,48.937421,2.372037,12,37,24,True,5
Stéphanie Bouvard - Gambetta,48.814548,2.402439,25,30,5,True,12
Rouget de L'isle - Watteau,48.778193,2.396302,18,20,2,False,14
Stade Gaston Bouillant,48.939959,2.327957,2,30,28,False,0
Station Humanisée Brennus,48.923048,2.364443,0,200,200,False,0
Mairie,48.879143,2.416335,1,20,18,True,1
Station Humanisée Wilson-Landy,48.915093,2.357903,2,200,200,False,1
Place André Malraux,48.863925,2.335623,5,19,13,True,1
